$GNRMC,110133.600,A,5959.865498,N,03016.174792,E,10.77,116.84,091217,,,D*41
$GNRMC,110135.600,A,5959.863573,N,03016.186144,E,10.57,96.53,091217,,,D*74
$GNRMC,110137.600,A,5959.862819,N,03016.197712,E,10.49,91.00,091217,,,D*7D
$GNRMC,110139.600,A,5959.862526,N,03016.210695,E,12.25,90.21,091217,,,D*7A
$GNRMC,110141.600,A,5959.862388,N,03016.225566,E,12.96,90.42,091217,,,D*73
$GNRMC,110143.600,A,5959.862290,N,03016.238678,E,10.26,91.55,091217,,,D*77
$GNRMC,110145.600,A,5959.862292,N,03016.246966,E,6.26,91.56,091217,,,D*4E
$GNRMC,110147.600,A,5959.862577,N,03016.250472,E,2.22,89.36,091217,,,D*40
$GNRMC,110150.200,A,5959.862902,N,03016.251634,E,0.89,66.52,091217,,,D*4D
$GNRMC,110152.200,A,5959.862989,N,03016.251993,E,0.00,59.75,091217,,,D*46
$GNRMC,110154.200,A,5959.862989,N,03016.251993,E,0.00,59.75,091217,,,D*40
$GNRMC,110156.200,A,5959.862989,N,03016.251993,E,0.00,59.75,091217,,,D*42
$GNRMC,110157.600,A,5959.862989,N,03016.251993,E,0.00,59.75,091217,,,D*47
$GNRMC,110159.600,A,5959.862989,N,03016.251993,E,0.00,59.75,091217,,,D*49
$GNRMC,110201.600,A,5959.862989,N,03016.251993,E,0.00,59.75,091217,,,D*47
$GNRMC,110203.600,A,5959.864007,N,03016.254561,E,6.10,17.57,091217,,,D*45
$GNRMC,110205.600,A,5959.870375,N,03016.257555,E,12.93,0.73,091217,,,D*4A
$GNRMC,110207.600,A,5959.879900,N,03016.259033,E,19.02,1.07,091217,,,D*43
$GNRMC,110209.600,A,5959.890583,N,03016.260493,E,18.46,359.85,091217,,,D*4C
$GNRMC,110211.600,A,5959.898789,N,03016.260010,E,12.36,351.20,091217,,,D*40
$GNRMC,110213.600,A,5959.904561,N,03016.256808,E,9.93,334.12,091217,,,D*71
$GNRMC,110215.600,A,5959.908545,N,03016.251573,E,8.14,318.69,091217,,,D*77
$GNRMC,110217.600,A,5959.911526,N,03016.246297,E,6.86,316.42,091217,,,D*71
$GNRMC,110220.200,A,5959.913559,N,03016.242574,E,2.38,321.29,091217,,,D*7D
$GNRMC,110222.200,A,5959.913902,N,03016.242842,E,0.48,321.29,091217,,,D*70
$GNRMC,110224.200,A,5959.914146,N,03016.242917,E,0.00,352.60,091217,,,D*7D
$GNRMC,110226.200,A,5959.915087,N,03016.241002,E,5.88,311.77,091217,,,D*78
$GNRMC,110230.200,A,5959.923079,N,03016.222979,E,11.07,311.45,091217,,,D*48
$GNRMC,110232.200,A,5959.927621,N,03016.213425,E,12.01,318.05,091217,,,D*4B
$GNRMC,110233.600,A,5959.931809,N,03016.207524,E,13.28,328.96,091217,,,D*4B
$GNRMC,110235.600,A,5959.938735,N,03016.202402,E,12.80,347.81,091217,,,D*48
$GNRMC,110238.200,A,5959.945913,N,03016.204001,E,9.48,23.71,091217,,,D*40
$GNRMC,110239.600,A,5959.948104,N,03016.208965,E,9.29,54.80,091217,,,D*48
$GNRMC,110241.600,A,5959.948427,N,03016.222220,E,14.14,92.69,091217,,,D*7E
$GNRMC,110244.200,A,5959.945503,N,03016.249848,E,20.98,102.28,091217,,,D*42
$GNRMC,110245.600,A,5959.943461,N,03016.266845,E,22.71,102.27,091217,,,D*4E
$GNRMC,110247.600,A,5959.940245,N,03016.294368,E,25.87,101.45,091217,,,D*4F
$GNRMC,110250.200,A,5959.935382,N,03016.332776,E,26.66,105.31,091217,,,D*48
$GNRMC,110251.600,A,5959.932569,N,03016.353772,E,27.35,104.17,091217,,,D*48
$GNRMC,110253.600,A,5959.928586,N,03016.384011,E,28.26,103.98,091217,,,D*45
$GNRMC,110256.200,A,5959.923480,N,03016.425337,E,29.70,103.04,091217,,,D*44
$GNRMC,110257.600,A,5959.920725,N,03016.448604,E,30.28,102.86,091217,,,D*4E
$GNRMC,110259.600,A,5959.916542,N,03016.480790,E,28.78,104.17,091217,,,D*4C
$GNRMC,110301.600,A,5959.912440,N,03016.510871,E,26.92,104.58,091217,,,D*4E
$GNRMC,110304.200,A,5959.908470,N,03016.546653,E,23.31,100.25,091217,,,D*48
$GNRMC,110305.600,A,5959.907325,N,03016.563041,E,20.45,97.54,091217,,,D*7E
$GNRMC,110307.600,A,5959.906688,N,03016.581639,E,14.90,91.53,091217,,,D*74
$GNRMC,110309.600,A,5959.907076,N,03016.593656,E,10.20,81.67,091217,,,D*7F
$GNRMC,110311.600,A,5959.909978,N,03016.599044,E,7.32,23.35,091217,,,D*4A
$GNRMC,110314.200,A,5959.913118,N,03016.599411,E,3.65,350.13,091217,,,D*7F
$GNRMC,110316.400,A,5959.916425,N,03016.597859,E,6.79,346.47,091217,,,D*75
$GNRMC,110317.600,A,5959.919880,N,03016.596101,E,10.37,344.79,091217,,,D*4D
$GNRMC,110319.600,A,5959.927625,N,03016.592358,E,14.90,346.61,091217,,,D*47
$GNRMC,110322.200,A,5959.942534,N,03016.585900,E,22.89,347.81,091217,,,D*48
$GNRMC,110323.600,A,5959.952342,N,03016.581870,E,25.25,348.44,091217,,,D*4E
$GNRMC,110325.600,A,5959.967556,N,03016.575704,E,28.17,347.71,091217,,,D*4F
$GNRMC,110327.600,A,5959.983771,N,03016.569615,E,29.65,350.75,091217,,,D*4A
$GNRMC,110329.600,A,6000.000991,N,03016.563825,E,31.30,349.62,091217,,,D*40
$GNRMC,110332.400,A,6000.024924,N,03016.553577,E,30.02,349.16,091217,,,D*4A
$GNRMC,110334.400,A,6000.038441,N,03016.548818,E,23.09,350.47,091217,,,D*44
$GNRMC,110335.600,A,6000.045705,N,03016.546128,E,22.32,348.82,091217,,,D*43
$GNRMC,110337.600,A,6000.058618,N,03016.541028,E,24.31,347.75,091217,,,D*44
$GNRMC,110339.600,A,6000.073015,N,03016.536070,E,26.21,350.32,091217,,,D*43
$GNRMC,110342.400,A,6000.090605,N,03016.530382,E,20.47,350.77,091217,,,D*48
$GNRMC,110343.600,A,6000.095802,N,03016.528626,E,15.60,351.74,091217,,,D*44
$GNRMC,110346.400,A,6000.101073,N,03016.527932,E,4.88,9.44,091217,,,D*7F
$GNRMC,110348.400,A,6000.102740,N,03016.531241,E,4.95,48.36,091217,,,D*41
$GNRMC,110349.600,A,6000.103157,N,03016.534828,E,5.64,70.11,091217,,,D*42
$GNRMC,110351.600,A,6000.103889,N,03016.542580,E,8.02,74.92,091217,,,D*4D
$GNRMC,110354.400,A,6000.105461,N,03016.556585,E,9.35,79.26,091217,,,D*41
$GNRMC,110355.600,A,6000.105837,N,03016.563368,E,10.35,80.93,091217,,,D*7E
$GNRMC,110357.600,A,6000.106373,N,03016.575223,E,10.66,82.30,091217,,,D*70
$GNRMC,110400.400,A,6000.106810,N,03016.590265,E,8.37,86.86,091217,,,D*44
$GNRMC,110401.600,A,6000.106944,N,03016.595429,E,7.13,84.10,091217,,,D*48
$GNRMC,110404.400,A,6000.107343,N,03016.603815,E,4.17,75.69,091217,,,D*4B
$GNRMC,110406.400,A,6000.108280,N,03016.606194,E,3.01,21.95,091217,,,D*4F
$GNRMC,110408.400,A,6000.108926,N,03016.606581,E,1.59,21.95,091217,,,D*49
$GNRMC,110410.400,A,6000.109042,N,03016.607135,E,0.09,21.95,091217,,,D*44
$GNRMC,110412.400,A,6000.108663,N,03016.607336,E,0.00,21.95,091217,,,D*4A
$GNRMC,110414.400,A,6000.108633,N,03016.607341,E,0.00,21.95,091217,,,D*49
$GNRMC,110416.400,A,6000.108633,N,03016.607341,E,0.00,21.95,091217,,,D*4B
$GNRMC,110418.400,A,6000.108633,N,03016.607341,E,0.00,21.95,091217,,,D*45
$GNRMC,110420.400,A,6000.108633,N,03016.607341,E,0.00,21.95,091217,,,D*4E
$GNRMC,110422.400,A,6000.108633,N,03016.607341,E,0.00,21.95,091217,,,D*4C
$GNRMC,110424.600,A,6000.108633,N,03016.607341,E,0.00,21.95,091217,,,D*48
$GNRMC,110426.400,A,6000.108633,N,03016.607341,E,0.00,21.95,091217,,,D*48
$GNRMC,110428.400,A,6000.108633,N,03016.607341,E,0.00,21.95,091217,,,D*46
$GNRMC,110430.400,A,6000.108633,N,03016.607341,E,0.00,21.95,091217,,,D*4F
$GNRMC,110432.600,A,6000.108633,N,03016.607341,E,0.00,21.95,091217,,,D*4F
$GNRMC,110434.600,A,6000.108633,N,03016.607341,E,0.00,21.95,091217,,,D*49
