$GNRMC,050000.081,V,,,,,0.00,0.00,110180,,,N*56
$GNRMC,050000.081,V,,,,,0.00,0.00,110180,,,N*56
$GNRMC,050000.081,V,,,,,0.00,0.00,110180,,,N*56
$GNRMC,050001.081,V,,,,,0.00,0.00,110180,,,N*57
$GNRMC,050001.081,V,,,,,0.00,0.00,110180,,,N*57
$GNRMC,050001.081,V,,,,,0.00,0.00,110180,,,N*57
$GNRMC,050001.081,V,,,,,0.00,0.00,110180,,,N*57
$GNRMC,050001.081,V,,,,,0.00,0.00,110180,,,N*57
$GNRMC,050001.081,V,,,,,0.00,0.00,110180,,,N*57
$GNRMC,050001.081,V,,,,,0.00,0.00,110180,,,N*57
$GNRMC,050001.081,V,,,,,0.00,0.00,110180,,,N*57
$GNRMC,050001.081,V,,,,,0.00,0.00,110180,,,N*57
$GNRMC,050001.081,V,,,,,0.00,0.00,110180,,,N*57
$GNRMC,050002.081,V,,,,,0.00,0.00,110180,,,N*54
$GNRMC,050002.081,V,,,,,0.00,0.00,110180,,,N*54
$GNRMC,050002.081,V,,,,,0.00,0.00,110180,,,N*54
$GNRMC,050002.081,V,,,,,0.00,0.00,110180,,,N*54
$GNRMC,050002.081,V,,,,,0.00,0.00,110180,,,N*54
$GNRMC,050002.081,V,,,,,0.00,0.00,110180,,,N*54
$GNRMC,050002.081,V,,,,,0.00,0.00,110180,,,N*54
$GNRMC,050002.081,V,,,,,0.00,0.00,110180,,,N*54
$GNRMC,050002.081,V,,,,,0.00,0.00,110180,,,N*54
$GNRMC,050002.081,V,,,,,0.00,0.00,110180,,,N*54
$GNRMC,050003.081,V,,,,,0.00,0.00,110180,,,N*55
$GNRMC,050003.081,V,,,,,0.00,0.00,110180,,,N*55
$GNRMC,050003.081,V,,,,,0.00,0.00,110180,,,N*55
$GNRMC,050003.081,V,,,,,0.00,0.00,110180,,,N*55
$GNRMC,050003.081,V,,,,,0.00,0.00,110180,,,N*55
$GNRMC,050003.081,V,,,,,0.00,0.00,110180,,,N*55
$GNRMC,050003.081,V,,,,,0.00,0.00,110180,,,N*55
$GNRMC,050003.081,V,,,,,0.00,0.00,110180,,,N*55
$GNRMC,050003.081,V,,,,,0.00,0.00,110180,,,N*55
$GNRMC,050003.081,V,,,,,0.00,0.00,110180,,,N*55
$GNRMC,050004.081,V,,,,,0.00,0.00,110180,,,N*52
$GNRMC,050004.081,V,,,,,0.00,0.00,110180,,,N*52
$GNRMC,050004.081,V,,,,,0.00,0.00,110180,,,N*52
$GNRMC,050004.081,V,,,,,0.00,0.00,110180,,,N*52
$GNRMC,050004.081,V,,,,,0.00,0.00,110180,,,N*52
$GNRMC,050004.081,V,,,,,0.00,0.00,110180,,,N*52
$GNRMC,050004.081,V,,,,,0.00,0.00,110180,,,N*52
$GNRMC,050004.081,V,,,,,0.00,0.00,110180,,,N*52
$GNRMC,050004.081,V,,,,,0.00,0.00,110180,,,N*52
$GNRMC,050004.081,V,,,,,0.00,0.00,110180,,,N*52
$GNRMC,050005.081,V,,,,,0.00,0.00,110180,,,N*53
$GNRMC,050005.081,V,,,,,0.00,0.00,110180,,,N*53
$GNRMC,050005.081,V,,,,,0.00,0.00,110180,,,N*53
$GNRMC,050005.081,V,,,,,0.00,0.00,110180,,,N*53
$GNRMC,050005.081,V,,,,,0.00,0.00,110180,,,N*53
$GNRMC,050005.081,V,,,,,0.00,0.00,110180,,,N*53
$GNRMC,050005.081,V,,,,,0.00,0.00,110180,,,N*53
$GNRMC,050005.081,V,,,,,0.00,0.00,110180,,,N*53
$GNRMC,050005.081,V,,,,,0.00,0.00,110180,,,N*53
$GNRMC,050005.081,V,,,,,0.00,0.00,110180,,,N*53
$GNRMC,050006.081,V,,,,,0.00,0.00,110180,,,N*50
$GNRMC,050006.081,V,,,,,0.00,0.00,110180,,,N*50
$GNRMC,050006.081,V,,,,,0.00,0.00,110180,,,N*50
$GNRMC,050006.081,V,,,,,0.00,0.00,110180,,,N*50
$GNRMC,050006.081,V,,,,,0.00,0.00,110180,,,N*50
$GNRMC,050006.081,V,,,,,0.00,0.00,110180,,,N*50
$GNRMC,050006.081,V,,,,,0.00,0.00,110180,,,N*50
$GNRMC,050006.081,V,,,,,0.00,0.00,110180,,,N*50
$GNRMC,050006.081,V,,,,,0.00,0.00,110180,,,N*50
$GNRMC,050006.081,V,,,,,0.00,0.00,110180,,,N*50
$GNRMC,050007.081,V,,,,,0.00,0.00,110180,,,N*51
$GNRMC,050007.081,V,,,,,0.00,0.00,110180,,,N*51
$GNRMC,050007.081,V,,,,,0.00,0.00,110180,,,N*51
$GNRMC,050007.081,V,,,,,0.00,0.00,110180,,,N*51
$GNRMC,050007.081,V,,,,,0.00,0.00,110180,,,N*51
$GNRMC,050007.081,V,,,,,0.00,0.00,110180,,,N*51
$GNRMC,050007.081,V,,,,,0.00,0.00,110180,,,N*51
$GNRMC,050007.081,V,,,,,0.00,0.00,110180,,,N*51
$GNRMC,050007.081,V,,,,,0.00,0.00,110180,,,N*51
$GNRMC,050007.081,V,,,,,0.00,0.00,110180,,,N*51
$GNRMC,050008.081,V,,,,,0.00,0.00,110180,,,N*5E
$GNRMC,050008.081,V,,,,,0.00,0.00,110180,,,N*5E
$GNRMC,050008.081,V,,,,,0.00,0.00,110180,,,N*5E
$GNRMC,050008.081,V,,,,,0.00,0.00,110180,,,N*5E
$GNRMC,050008.081,V,,,,,0.00,0.00,110180,,,N*5E
$GNRMC,050008.081,V,,,,,0.00,0.00,110180,,,N*5E
$GNRMC,050008.081,V,,,,,0.00,0.00,110180,,,N*5E
$GNRMC,050008.081,V,,,,,0.00,0.00,110180,,,N*5E
$GNRMC,050008.081,V,,,,,0.00,0.00,110180,,,N*5E
$GNRMC,050008.081,V,,,,,0.00,0.00,110180,,,N*5E
$GNRMC,050009.081,V,,,,,0.00,0.00,110180,,,N*5F
$GNRMC,050009.081,V,,,,,0.00,0.00,110180,,,N*5F
$GNRMC,050009.081,V,,,,,0.00,0.00,110180,,,N*5F
$GNRMC,050009.081,V,,,,,0.00,0.00,110180,,,N*5F
$GNRMC,050009.081,V,,,,,0.00,0.00,110180,,,N*5F
$GNRMC,050009.081,V,,,,,0.00,0.00,110180,,,N*5F
$GNRMC,050009.081,V,,,,,0.00,0.00,110180,,,N*5F
$GNRMC,050009.081,V,,,,,0.00,0.00,110180,,,N*5F
$GNRMC,050009.081,V,,,,,0.00,0.00,110180,,,N*5F
$GNRMC,050009.081,V,,,,,0.00,0.00,110180,,,N*5F
$GNRMC,050010.081,V,,,,,0.00,0.00,050118,,,N*53
$GNRMC,050010.081,V,,,,,0.00,0.00,050118,,,N*53
$GNRMC,050010.081,V,,,,,0.00,0.00,050118,,,N*53
$GNRMC,050010.081,V,,,,,0.00,0.00,050118,,,N*53
$GNRMC,050010.081,V,,,,,0.00,0.00,050118,,,N*53
$GNRMC,050010.081,V,,,,,0.00,0.00,050118,,,N*53
$GNRMC,050010.081,V,,,,,0.00,0.00,050118,,,N*53
$GNRMC,050010.081,V,,,,,0.00,0.00,050118,,,N*53
$GNRMC,050010.081,V,,,,,0.00,0.00,050118,,,N*53
$GNRMC,050010.081,V,,,,,0.00,0.00,050118,,,N*53
$GNRMC,050011.081,V,,,,,0.00,0.00,050118,,,N*52
$GNRMC,050011.081,V,,,,,0.00,0.00,050118,,,N*52
$GNRMC,050011.081,V,,,,,0.00,0.00,050118,,,N*52
$GNRMC,050011.081,V,,,,,0.00,0.00,050118,,,N*52
$GNRMC,050011.081,V,,,,,0.00,0.00,050118,,,N*52
$GNRMC,050011.081,V,,,,,0.00,0.00,050118,,,N*52
$GNRMC,050011.081,V,,,,,0.00,0.00,050118,,,N*52
$GNRMC,050011.081,V,,,,,0.00,0.00,050118,,,N*52
$GNRMC,050011.081,V,,,,,0.00,0.00,050118,,,N*52
$GNRMC,050011.081,V,,,,,0.00,0.00,050118,,,N*52
$GNRMC,050012.081,V,,,,,0.00,0.00,050118,,,N*51
$GNRMC,050012.081,V,,,,,0.00,0.00,050118,,,N*51
$GNRMC,050012.081,V,,,,,0.00,0.00,050118,,,N*51
$GNRMC,050012.081,V,,,,,0.00,0.00,050118,,,N*51
$GNRMC,050012.302,V,,,,,0.00,0.00,050118,,,N*59
$GNRMC,050012.302,V,,,,,0.00,0.00,050118,,,N*59
$GNRMC,050012.302,V,,,,,0.00,0.00,050118,,,N*59
$GNRMC,050012.302,V,,,,,0.00,0.00,050118,,,N*59
$GNRMC,050012.302,V,,,,,0.00,0.00,050118,,,N*59
$GNRMC,050012.302,V,,,,,0.00,0.00,050118,,,N*59
$GNRMC,050012.302,V,,,,,0.00,0.00,050118,,,N*59
$GNRMC,050012.302,V,,,,,0.00,0.00,050118,,,N*59
$GNRMC,050013.302,V,,,,,0.00,0.00,050118,,,N*58
$GNRMC,050013.302,V,,,,,0.00,0.00,050118,,,N*58
$GNRMC,050013.302,V,,,,,0.00,0.00,050118,,,N*58
$GNRMC,050013.302,V,,,,,0.00,0.00,050118,,,N*58
$GNRMC,050013.302,V,,,,,0.00,0.00,050118,,,N*58
$GNRMC,050013.302,V,,,,,0.00,0.00,050118,,,N*58
$GNRMC,050013.302,V,,,,,0.00,0.00,050118,,,N*58
$GNRMC,050013.302,V,,,,,0.00,0.00,050118,,,N*58
$GNRMC,050013.302,V,,,,,0.00,0.00,050118,,,N*58
$GNRMC,050013.302,V,,,,,0.00,0.00,050118,,,N*58
$GNRMC,050014.302,V,,,,,0.00,0.00,050118,,,N*5F
$GNRMC,050014.302,V,,,,,0.00,0.00,050118,,,N*5F
$GNRMC,050014.302,V,,,,,0.00,0.00,050118,,,N*5F
$GNRMC,050014.302,V,,,,,0.00,0.00,050118,,,N*5F
$GNRMC,050014.302,V,,,,,0.00,0.00,050118,,,N*5F
$GNRMC,050014.302,V,,,,,0.00,0.00,050118,,,N*5F
$GNRMC,050014.302,V,,,,,0.00,0.00,050118,,,N*5F
$GNRMC,050014.302,V,,,,,0.00,0.00,050118,,,N*5F
$GNRMC,050014.302,V,,,,,0.00,0.00,050118,,,N*5F
$GNRMC,050014.302,V,,,,,0.00,0.00,050118,,,N*5F
$GNRMC,050015.302,V,,,,,0.00,0.00,050118,,,N*5E
$GNRMC,050015.302,V,,,,,0.00,0.00,050118,,,N*5E
$GNRMC,050015.302,V,,,,,0.00,0.00,050118,,,N*5E
$GNRMC,050015.302,V,,,,,0.00,0.00,050118,,,N*5E
$GNRMC,050015.302,V,,,,,0.00,0.00,050118,,,N*5E
$GNRMC,050015.302,V,,,,,0.00,0.00,050118,,,N*5E
$GNRMC,050015.302,V,,,,,0.00,0.00,050118,,,N*5E
$GNRMC,050015.302,V,,,,,0.00,0.00,050118,,,N*5E
$GNRMC,050015.302,V,,,,,0.00,0.00,050118,,,N*5E
$GNRMC,050015.302,V,,,,,0.00,0.00,050118,,,N*5E
$GNRMC,050016.302,V,,,,,0.00,0.00,050118,,,N*5D
$GNRMC,050016.302,V,,,,,0.00,0.00,050118,,,N*5D
$GNRMC,050016.302,V,,,,,0.00,0.00,050118,,,N*5D
$GNRMC,050016.302,V,,,,,0.00,0.00,050118,,,N*5D
$GNRMC,050016.302,V,,,,,0.00,0.00,050118,,,N*5D
$GNRMC,050016.302,V,,,,,0.00,0.00,050118,,,N*5D
$GNRMC,050016.302,V,,,,,0.00,0.00,050118,,,N*5D
$GNRMC,050016.302,V,,,,,0.00,0.00,050118,,,N*5D
$GNRMC,050016.302,V,,,,,0.00,0.00,050118,,,N*5D
$GNRMC,050016.302,V,,,,,0.00,0.00,050118,,,N*5D
$GNRMC,050017.302,V,,,,,0.00,0.00,050118,,,N*5C
$GNRMC,050017.302,V,,,,,0.00,0.00,050118,,,N*5C
$GNRMC,050017.302,V,,,,,0.00,0.00,050118,,,N*5C
$GNRMC,050017.302,V,,,,,0.00,0.00,050118,,,N*5C
$GNRMC,050017.302,V,,,,,0.00,0.00,050118,,,N*5C
$GNRMC,050017.302,V,,,,,0.00,0.00,050118,,,N*5C
$GNRMC,050017.302,V,,,,,0.00,0.00,050118,,,N*5C
$GNRMC,050017.302,V,,,,,0.00,0.00,050118,,,N*5C
$GNRMC,050018.085,V,,,,,0.04,234.84,050118,,,N*52
$GNRMC,050018.085,V,,,,,0.04,234.84,050118,,,N*52
$GNRMC,050018.085,V,,,,,0.04,234.84,050118,,,N*52
$GNRMC,050018.085,V,,,,,0.04,234.84,050118,,,N*52
$GNRMC,050018.085,V,,,,,0.04,234.84,050118,,,N*52
$GNRMC,050018.085,V,,,,,0.04,234.84,050118,,,N*52
$GNRMC,050018.085,V,,,,,0.04,234.84,050118,,,N*52
$GNRMC,050018.085,V,,,,,0.04,234.84,050118,,,N*52
$GNRMC,050018.085,V,,,,,0.04,234.84,050118,,,N*52
$GNRMC,050018.085,V,,,,,0.04,234.84,050118,,,N*52
$GNRMC,050018.085,V,,,,,0.04,234.84,050118,,,N*52
$GNRMC,050019.085,V,,,,,0.34,178.74,050118,,,N*54
$GNRMC,050019.085,V,,,,,0.34,178.74,050118,,,N*54
$GNRMC,050019.085,V,,,,,0.34,178.74,050118,,,N*54
$GNRMC,050019.085,V,,,,,0.34,178.74,050118,,,N*54
$GNRMC,050019.085,V,,,,,0.34,178.74,050118,,,N*54
$GNRMC,050019.085,V,,,,,0.34,178.74,050118,,,N*54
$GNRMC,050019.085,V,,,,,0.34,178.74,050118,,,N*54
$GNRMC,050019.085,V,,,,,0.34,178.74,050118,,,N*54
$GNRMC,050019.085,V,,,,,0.34,178.74,050118,,,N*54
$GNRMC,050020.085,V,,,,,0.18,158.59,050118,,,N*5D
$GNRMC,050020.085,V,,,,,0.18,158.59,050118,,,N*5D
$GNRMC,050020.085,V,,,,,0.18,158.59,050118,,,N*5D
$GNRMC,050020.085,V,,,,,0.18,158.59,050118,,,N*5D
$GNRMC,050020.085,V,,,,,0.18,158.59,050118,,,N*5D
$GNRMC,050020.085,V,,,,,0.18,158.59,050118,,,N*5D
$GNRMC,050020.085,V,,,,,0.18,158.59,050118,,,N*5D
$GNRMC,050020.085,V,,,,,0.18,158.59,050118,,,N*5D
$GNRMC,050020.085,V,,,,,0.18,158.59,050118,,,N*5D
$GNRMC,050020.085,V,,,,,0.18,158.59,050118,,,N*5D
$GNRMC,050021.085,V,,,,,0.09,43.96,050118,,,N*64
$GNRMC,050021.085,V,,,,,0.09,43.96,050118,,,N*64
$GNRMC,050021.085,V,,,,,0.09,43.96,050118,,,N*64
$GNRMC,050021.085,V,,,,,0.09,43.96,050118,,,N*64
$GNRMC,050021.085,V,,,,,0.09,43.96,050118,,,N*64
$GNRMC,050021.085,V,,,,,0.09,43.96,050118,,,N*64
$GNRMC,050021.085,V,,,,,0.09,43.96,050118,,,N*64
$GNRMC,050021.085,V,,,,,0.09,43.96,050118,,,N*64
$GNRMC,050021.085,V,,,,,0.09,43.96,050118,,,N*64
$GNRMC,050021.085,V,,,,,0.09,43.96,050118,,,N*64
$GNRMC,050021.085,V,,,,,0.09,43.96,050118,,,N*64
$GNRMC,050022.085,V,,,,,0.25,75.43,050118,,,N*64
$GNRMC,050022.085,V,,,,,0.25,75.43,050118,,,N*64
$GNRMC,050022.085,V,,,,,0.25,75.43,050118,,,N*64
$GNRMC,050022.085,V,,,,,0.25,75.43,050118,,,N*64
$GNRMC,050022.085,V,,,,,0.25,75.43,050118,,,N*64
$GNRMC,050022.085,V,,,,,0.25,75.43,050118,,,N*64
$GNRMC,050022.085,V,,,,,0.25,75.43,050118,,,N*64
$GNRMC,050022.085,V,,,,,0.25,75.43,050118,,,N*64
$GNRMC,050022.085,V,,,,,0.25,75.43,050118,,,N*64
$GNRMC,050023.085,V,,,,,0.49,77.31,050118,,,N*68
$GNRMC,050023.085,V,,,,,0.49,77.31,050118,,,N*68
$GNRMC,050023.085,V,,,,,0.49,77.31,050118,,,N*68
$GNRMC,050023.085,V,,,,,0.49,77.31,050118,,,N*68
$GNRMC,050023.085,V,,,,,0.49,77.31,050118,,,N*68
$GNRMC,050023.085,V,,,,,0.49,77.31,050118,,,N*68
$GNRMC,050023.085,V,,,,,0.49,77.31,050118,,,N*68
$GNRMC,050023.085,V,,,,,0.49,77.31,050118,,,N*68
$GNRMC,050023.085,V,,,,,0.49,77.31,050118,,,N*68
$GNRMC,050023.085,V,,,,,0.49,77.31,050118,,,N*68
$GNRMC,050023.085,V,,,,,0.49,77.31,050118,,,N*68
$GNRMC,050023.085,V,,,,,0.49,77.31,050118,,,N*68
$GNRMC,050024.085,V,,,,,0.28,191.21,050118,,,N*50
$GNRMC,050024.085,V,,,,,0.28,191.21,050118,,,N*50
$GNRMC,050024.085,V,,,,,0.28,191.21,050118,,,N*50
$GNRMC,050024.085,V,,,,,0.28,191.21,050118,,,N*50
$GNRMC,050024.085,V,,,,,0.28,191.21,050118,,,N*50
$GNRMC,050024.085,V,,,,,0.28,191.21,050118,,,N*50
$GNRMC,050024.085,V,,,,,0.28,191.21,050118,,,N*50
$GNRMC,050024.085,V,,,,,0.28,191.21,050118,,,N*50
$GNRMC,050024.085,V,,,,,0.28,191.21,050118,,,N*50
$GNRMC,050024.085,V,,,,,0.28,191.21,050118,,,N*50
$GNRMC,050024.085,V,,,,,0.28,191.21,050118,,,N*50
$GNRMC,050025.085,A,6115.1484,N,04639.0844,E,0.16,67.50,050118,,,A*4B
$GNRMC,050025.085,A,6115.1484,N,04639.0844,E,0.16,67.50,050118,,,A*4B
$GNRMC,050025.085,A,6115.1484,N,04639.0844,E,0.16,67.50,050118,,,A*4B
$GNRMC,050025.085,A,6115.1484,N,04639.0844,E,0.16,67.50,050118,,,A*4B
$GNRMC,050025.085,A,6115.1484,N,04639.0844,E,0.16,67.50,050118,,,A*4B
$GNRMC,050025.085,A,6115.1484,N,04639.0844,E,0.16,67.50,050118,,,A*4B
$GNRMC,050025.085,A,6115.1484,N,04639.0844,E,0.16,67.50,050118,,,A*4B
$GNRMC,050025.085,A,6115.1484,N,04639.0844,E,0.16,67.50,050118,,,A*4B
$GNRMC,050025.085,A,6115.1484,N,04639.0844,E,0.16,67.50,050118,,,A*4B
$GNRMC,050025.085,A,6115.1484,N,04639.0844,E,0.16,67.50,050118,,,A*4B
$GNRMC,050025.085,A,6115.1484,N,04639.0844,E,0.16,67.50,050118,,,A*4B
$GNRMC,050025.085,A,6115.1484,N,04639.0844,E,0.16,67.50,050118,,,A*4B
$GNRMC,050025.085,A,6115.1484,N,04639.0844,E,0.16,67.50,050118,,,A*4B
$GNRMC,050025.085,A,6115.1484,N,04639.0844,E,0.16,67.50,050118,,,A*4B
$GNRMC,050025.085,A,6115.1484,N,04639.0844,E,0.16,67.50,050118,,,A*4B
$GNRMC,050025.085,A,6115.1484,N,04639.0844,E,0.16,67.50,050118,,,A*4B
$GNRMC,050025.085,A,6115.1484,N,04639.0844,E,0.16,67.50,050118,,,A*4B
$GNRMC,050025.085,A,6115.1484,N,04639.0844,E,0.16,67.50,050118,,,A*4B
$GNRMC,050025.085,A,6115.1484,N,04639.0844,E,0.16,67.50,050118,,,A*4B
$GNRMC,050027.000,A,6115.1484,N,04639.0840,E,0.19,83.19,050118,,,A*48
$GNRMC,050027.000,A,6115.1484,N,04639.0840,E,0.19,83.19,050118,,,A*48
$GNRMC,050027.000,A,6115.1484,N,04639.0840,E,0.19,83.19,050118,,,A*48
$GNRMC,050027.000,A,6115.1484,N,04639.0840,E,0.19,83.19,050118,,,A*48
$GNRMC,050027.000,A,6115.1484,N,04639.0840,E,0.19,83.19,050118,,,A*48
$GNRMC,050027.000,A,6115.1484,N,04639.0840,E,0.19,83.19,050118,,,A*48
$GNRMC,050027.000,A,6115.1484,N,04639.0840,E,0.19,83.19,050118,,,A*48
$GNRMC,050027.000,A,6115.1484,N,04639.0840,E,0.19,83.19,050118,,,A*48
$GNRMC,050027.000,A,6115.1484,N,04639.0840,E,0.19,83.19,050118,,,A*48
$GNRMC,050027.000,A,6115.1484,N,04639.0840,E,0.19,83.19,050118,,,A*48
$GNRMC,050028.000,A,6115.1481,N,04639.0834,E,0.22,136.08,050118,,,A*76
$GNRMC,050028.000,A,6115.1481,N,04639.0834,E,0.22,136.08,050118,,,A*76
$GNRMC,050028.000,A,6115.1481,N,04639.0834,E,0.22,136.08,050118,,,A*76
$GNRMC,050028.000,A,6115.1481,N,04639.0834,E,0.22,136.08,050118,,,A*76
$GNRMC,050028.000,A,6115.1481,N,04639.0834,E,0.22,136.08,050118,,,A*76
$GNRMC,050028.000,A,6115.1481,N,04639.0834,E,0.22,136.08,050118,,,A*76
$GNRMC,050028.000,A,6115.1481,N,04639.0834,E,0.22,136.08,050118,,,A*76
$GNRMC,050028.000,A,6115.1481,N,04639.0834,E,0.22,136.08,050118,,,A*76
$GNRMC,050028.000,A,6115.1481,N,04639.0834,E,0.22,136.08,050118,,,A*76
$GNRMC,050028.000,A,6115.1481,N,04639.0834,E,0.22,136.08,050118,,,A*76
$GNRMC,050029.000,A,6115.1485,N,04639.0824,E,0.19,87.27,050118,,,A*4C
$GNRMC,050029.000,A,6115.1485,N,04639.0824,E,0.19,87.27,050118,,,A*4C
$GNRMC,050029.000,A,6115.1485,N,04639.0824,E,0.19,87.27,050118,,,A*4C
$GNRMC,050029.000,A,6115.1485,N,04639.0824,E,0.19,87.27,050118,,,A*4C
$GNRMC,050029.000,A,6115.1485,N,04639.0824,E,0.19,87.27,050118,,,A*4C
$GNRMC,050029.000,A,6115.1485,N,04639.0824,E,0.19,87.27,050118,,,A*4C
$GNRMC,050029.000,A,6115.1485,N,04639.0824,E,0.19,87.27,050118,,,A*4C
$GNRMC,050029.000,A,6115.1485,N,04639.0824,E,0.19,87.27,050118,,,A*4C
$GNRMC,050029.000,A,6115.1485,N,04639.0824,E,0.19,87.27,050118,,,A*4C
$GNRMC,050029.000,A,6115.1485,N,04639.0824,E,0.19,87.27,050118,,,A*4C
$GNRMC,050030.000,A,6115.1485,N,04639.0810,E,0.10,139.66,050118,,,A*7B
$GNRMC,050030.000,A,6115.1485,N,04639.0810,E,0.10,139.66,050118,,,A*7B
$GNRMC,050030.000,A,6115.1485,N,04639.0810,E,0.10,139.66,050118,,,A*7B
$GNRMC,050030.000,A,6115.1485,N,04639.0810,E,0.10,139.66,050118,,,A*7B
$GNRMC,050030.000,A,6115.1485,N,04639.0810,E,0.10,139.66,050118,,,A*7B
$GNRMC,050030.000,A,6115.1485,N,04639.0810,E,0.10,139.66,050118,,,A*7B
$GNRMC,050030.000,A,6115.1485,N,04639.0810,E,0.10,139.66,050118,,,A*7B
$GNRMC,050030.000,A,6115.1485,N,04639.0810,E,0.10,139.66,050118,,,A*7B
$GNRMC,050030.000,A,6115.1485,N,04639.0810,E,0.10,139.66,050118,,,A*7B
$GNRMC,050030.000,A,6115.1485,N,04639.0810,E,0.10,139.66,050118,,,A*7B
$GNRMC,050030.000,A,6115.1485,N,04639.0810,E,0.10,139.66,050118,,,A*7B
$GNRMC,050031.000,A,6115.1485,N,04639.0805,E,0.02,144.15,050118,,,A*73
$GNRMC,050031.000,A,6115.1485,N,04639.0805,E,0.02,144.15,050118,,,A*73
$GNRMC,050031.000,A,6115.1485,N,04639.0805,E,0.02,144.15,050118,,,A*73
$GNRMC,050031.000,A,6115.1485,N,04639.0805,E,0.02,144.15,050118,,,A*73
$GNRMC,050031.000,A,6115.1485,N,04639.0805,E,0.02,144.15,050118,,,A*73
$GNRMC,050031.000,A,6115.1485,N,04639.0805,E,0.02,144.15,050118,,,A*73
$GNRMC,050031.000,A,6115.1485,N,04639.0805,E,0.02,144.15,050118,,,A*73
$GNRMC,050031.000,A,6115.1485,N,04639.0805,E,0.02,144.15,050118,,,A*73
$GNRMC,050031.000,A,6115.1485,N,04639.0805,E,0.02,144.15,050118,,,A*73
$GNRMC,050032.000,A,6115.1479,N,04639.0813,E,0.14,72.11,050118,,,A*43
$GNRMC,050032.000,A,6115.1479,N,04639.0813,E,0.14,72.11,050118,,,A*43
$GNRMC,050032.000,A,6115.1479,N,04639.0813,E,0.14,72.11,050118,,,A*43
$GNRMC,050032.000,A,6115.1479,N,04639.0813,E,0.14,72.11,050118,,,A*43
$GNRMC,050032.000,A,6115.1479,N,04639.0813,E,0.14,72.11,050118,,,A*43
$GNRMC,050032.000,A,6115.1479,N,04639.0813,E,0.14,72.11,050118,,,A*43
$GNRMC,050032.000,A,6115.1479,N,04639.0813,E,0.14,72.11,050118,,,A*43
$GNRMC,050032.000,A,6115.1479,N,04639.0813,E,0.14,72.11,050118,,,A*43
$GNRMC,050032.000,A,6115.1479,N,04639.0813,E,0.14,72.11,050118,,,A*43
$GNRMC,050032.000,A,6115.1479,N,04639.0813,E,0.14,72.11,050118,,,A*43
$GNRMC,050033.000,A,6115.1480,N,04639.0805,E,0.14,31.10,050118,,,A*45
$GNRMC,050033.000,A,6115.1480,N,04639.0805,E,0.14,31.10,050118,,,A*45
$GNRMC,050033.000,A,6115.1480,N,04639.0805,E,0.14,31.10,050118,,,A*45
$GNRMC,050033.000,A,6115.1480,N,04639.0805,E,0.14,31.10,050118,,,A*45
$GNRMC,050033.000,A,6115.1480,N,04639.0805,E,0.14,31.10,050118,,,A*45
$GNRMC,050033.000,A,6115.1480,N,04639.0805,E,0.14,31.10,050118,,,A*45
$GNRMC,050033.000,A,6115.1480,N,04639.0805,E,0.14,31.10,050118,,,A*45
$GNRMC,050033.000,A,6115.1480,N,04639.0805,E,0.14,31.10,050118,,,A*45
$GNRMC,050033.000,A,6115.1480,N,04639.0805,E,0.14,31.10,050118,,,A*45
$GNRMC,050033.000,A,6115.1480,N,04639.0805,E,0.14,31.10,050118,,,A*45
$GNRMC,050033.000,A,6115.1480,N,04639.0805,E,0.14,31.10,050118,,,A*45
$GNRMC,050034.000,A,6115.1480,N,04639.0802,E,0.22,9.53,050118,,,A*7C
$GNRMC,050034.000,A,6115.1480,N,04639.0802,E,0.22,9.53,050118,,,A*7C
$GNRMC,050034.000,A,6115.1480,N,04639.0802,E,0.22,9.53,050118,,,A*7C
$GNRMC,050034.000,A,6115.1480,N,04639.0802,E,0.22,9.53,050118,,,A*7C
$GNRMC,050034.000,A,6115.1480,N,04639.0802,E,0.22,9.53,050118,,,A*7C
$GNRMC,050034.000,A,6115.1480,N,04639.0802,E,0.22,9.53,050118,,,A*7C
$GNRMC,050034.000,A,6115.1480,N,04639.0802,E,0.22,9.53,050118,,,A*7C
$GNRMC,050034.000,A,6115.1480,N,04639.0802,E,0.22,9.53,050118,,,A*7C
$GNRMC,050034.000,A,6115.1480,N,04639.0802,E,0.22,9.53,050118,,,A*7C
$GNRMC,050035.000,A,6115.1477,N,04639.0805,E,0.21,352.07,050118,,,A*7D
$GNRMC,050035.000,A,6115.1477,N,04639.0805,E,0.21,352.07,050118,,,A*7D
$GNRMC,050035.000,A,6115.1477,N,04639.0805,E,0.21,352.07,050118,,,A*7D
$GNRMC,050035.000,A,6115.1477,N,04639.0805,E,0.21,352.07,050118,,,A*7D
$GNRMC,050035.000,A,6115.1477,N,04639.0805,E,0.21,352.07,050118,,,A*7D
$GNRMC,050035.000,A,6115.1477,N,04639.0805,E,0.21,352.07,050118,,,A*7D
$GNRMC,050035.000,A,6115.1477,N,04639.0805,E,0.21,352.07,050118,,,A*7D
$GNRMC,050035.000,A,6115.1477,N,04639.0805,E,0.21,352.07,050118,,,A*7D
$GNRMC,050035.000,A,6115.1477,N,04639.0805,E,0.21,352.07,050118,,,A*7D
$GNRMC,050035.000,A,6115.1477,N,04639.0805,E,0.21,352.07,050118,,,A*7D
$GNRMC,050035.000,A,6115.1477,N,04639.0805,E,0.21,352.07,050118,,,A*7D
$GNRMC,050036.000,A,6115.1476,N,04639.0804,E,0.12,355.88,050118,,,A*7E
$GNRMC,050036.000,A,6115.1476,N,04639.0804,E,0.12,355.88,050118,,,A*7E
$GNRMC,050036.000,A,6115.1476,N,04639.0804,E,0.12,355.88,050118,,,A*7E
$GNRMC,050036.000,A,6115.1476,N,04639.0804,E,0.12,355.88,050118,,,A*7E
$GNRMC,050036.000,A,6115.1476,N,04639.0804,E,0.12,355.88,050118,,,A*7E
$GNRMC,050036.000,A,6115.1476,N,04639.0804,E,0.12,355.88,050118,,,A*7E
$GNRMC,050036.000,A,6115.1476,N,04639.0804,E,0.12,355.88,050118,,,A*7E
$GNRMC,050036.000,A,6115.1476,N,04639.0804,E,0.12,355.88,050118,,,A*7E
$GNRMC,050036.000,A,6115.1476,N,04639.0804,E,0.12,355.88,050118,,,A*7E
$GNRMC,050036.000,A,6115.1476,N,04639.0804,E,0.12,355.88,050118,,,A*7E
$GNRMC,050037.000,A,6115.1476,N,04639.0802,E,0.18,2.39,050118,,,A*78
$GNRMC,050037.000,A,6115.1476,N,04639.0802,E,0.18,2.39,050118,,,A*78
$GNRMC,050037.000,A,6115.1476,N,04639.0802,E,0.18,2.39,050118,,,A*78
$GNRMC,050037.000,A,6115.1476,N,04639.0802,E,0.18,2.39,050118,,,A*78
$GNRMC,050037.000,A,6115.1476,N,04639.0802,E,0.18,2.39,050118,,,A*78
$GNRMC,050037.000,A,6115.1476,N,04639.0802,E,0.18,2.39,050118,,,A*78
$GNRMC,050037.000,A,6115.1476,N,04639.0802,E,0.18,2.39,050118,,,A*78
$GNRMC,050037.000,A,6115.1476,N,04639.0802,E,0.18,2.39,050118,,,A*78
$GNRMC,050037.000,A,6115.1476,N,04639.0802,E,0.18,2.39,050118,,,A*78
$GNRMC,050038.000,A,6115.1475,N,04639.0805,E,0.17,0.02,050118,,,A*76
$GNRMC,050038.000,A,6115.1475,N,04639.0805,E,0.17,0.02,050118,,,A*76
$GNRMC,050038.000,A,6115.1475,N,04639.0805,E,0.17,0.02,050118,,,A*76
$GNRMC,050038.000,A,6115.1475,N,04639.0805,E,0.17,0.02,050118,,,A*76
$GNRMC,050038.000,A,6115.1475,N,04639.0805,E,0.17,0.02,050118,,,A*76
$GNRMC,050038.000,A,6115.1475,N,04639.0805,E,0.17,0.02,050118,,,A*76
$GNRMC,050038.000,A,6115.1475,N,04639.0805,E,0.17,0.02,050118,,,A*76
$GNRMC,050038.000,A,6115.1475,N,04639.0805,E,0.17,0.02,050118,,,A*76
$GNRMC,050038.000,A,6115.1475,N,04639.0805,E,0.17,0.02,050118,,,A*76
$GNRMC,050038.000,A,6115.1475,N,04639.0805,E,0.17,0.02,050118,,,A*76
$GNRMC,050039.000,A,6115.1474,N,04639.0807,E,0.21,28.13,050118,,,A*4B
$GNRMC,050039.000,A,6115.1474,N,04639.0807,E,0.21,28.13,050118,,,A*4B
$GNRMC,050039.000,A,6115.1474,N,04639.0807,E,0.21,28.13,050118,,,A*4B
$GNRMC,050039.000,A,6115.1474,N,04639.0807,E,0.21,28.13,050118,,,A*4B
$GNRMC,050039.000,A,6115.1474,N,04639.0807,E,0.21,28.13,050118,,,A*4B
$GNRMC,050039.000,A,6115.1474,N,04639.0807,E,0.21,28.13,050118,,,A*4B
$GNRMC,050039.000,A,6115.1474,N,04639.0807,E,0.21,28.13,050118,,,A*4B
$GNRMC,050039.000,A,6115.1474,N,04639.0807,E,0.21,28.13,050118,,,A*4B
$GNRMC,050039.000,A,6115.1474,N,04639.0807,E,0.21,28.13,050118,,,A*4B
$GNRMC,050039.000,A,6115.1474,N,04639.0807,E,0.21,28.13,050118,,,A*4B
$GNRMC,050039.000,A,6115.1474,N,04639.0807,E,0.21,28.13,050118,,,A*4B
$GNRMC,050040.000,A,6115.1464,N,04639.0804,E,0.14,201.36,050118,,,A*7F
$GNRMC,050040.000,A,6115.1464,N,04639.0804,E,0.14,201.36,050118,,,A*7F
$GNRMC,050040.000,A,6115.1464,N,04639.0804,E,0.14,201.36,050118,,,A*7F
$GNRMC,050040.000,A,6115.1464,N,04639.0804,E,0.14,201.36,050118,,,A*7F
$GNRMC,050040.000,A,6115.1464,N,04639.0804,E,0.14,201.36,050118,,,A*7F
$GNRMC,050040.000,A,6115.1464,N,04639.0804,E,0.14,201.36,050118,,,A*7F
$GNRMC,050040.000,A,6115.1464,N,04639.0804,E,0.14,201.36,050118,,,A*7F
$GNRMC,050040.000,A,6115.1464,N,04639.0804,E,0.14,201.36,050118,,,A*7F
$GNRMC,050040.000,A,6115.1464,N,04639.0804,E,0.14,201.36,050118,,,A*7F
$GNRMC,050040.000,A,6115.1464,N,04639.0804,E,0.14,201.36,050118,,,A*7F
$GNRMC,050041.000,A,6115.1463,N,04639.0806,E,0.22,181.03,050118,,,A*73
$GNRMC,050041.000,A,6115.1463,N,04639.0806,E,0.22,181.03,050118,,,A*73
$GNRMC,050041.000,A,6115.1463,N,04639.0806,E,0.22,181.03,050118,,,A*73
$GNRMC,050041.000,A,6115.1463,N,04639.0806,E,0.22,181.03,050118,,,A*73
$GNRMC,050041.000,A,6115.1463,N,04639.0806,E,0.22,181.03,050118,,,A*73
$GNRMC,050041.000,A,6115.1463,N,04639.0806,E,0.22,181.03,050118,,,A*73
$GNRMC,050041.000,A,6115.1463,N,04639.0806,E,0.22,181.03,050118,,,A*73
$GNRMC,050041.000,A,6115.1463,N,04639.0806,E,0.22,181.03,050118,,,A*73
$GNRMC,050041.000,A,6115.1463,N,04639.0806,E,0.22,181.03,050118,,,A*73
$GNRMC,050041.000,A,6115.1463,N,04639.0806,E,0.22,181.03,050118,,,A*73
$GNRMC,050042.000,A,6115.1463,N,04639.0806,E,0.20,135.03,050118,,,A*7D
$GNRMC,050042.000,A,6115.1463,N,04639.0806,E,0.20,135.03,050118,,,A*7D
$GNRMC,050042.000,A,6115.1463,N,04639.0806,E,0.20,135.03,050118,,,A*7D
$GNRMC,050042.000,A,6115.1463,N,04639.0806,E,0.20,135.03,050118,,,A*7D
$GNRMC,050042.000,A,6115.1463,N,04639.0806,E,0.20,135.03,050118,,,A*7D
$GNRMC,050042.000,A,6115.1463,N,04639.0806,E,0.20,135.03,050118,,,A*7D
$GNRMC,050042.000,A,6115.1463,N,04639.0806,E,0.20,135.03,050118,,,A*7D
$GNRMC,050042.000,A,6115.1463,N,04639.0806,E,0.20,135.03,050118,,,A*7D
$GNRMC,050042.000,A,6115.1463,N,04639.0806,E,0.20,135.03,050118,,,A*7D
$GNRMC,050042.000,A,6115.1463,N,04639.0806,E,0.20,135.03,050118,,,A*7D
$GNRMC,050042.000,A,6115.1463,N,04639.0806,E,0.20,135.03,050118,,,A*7D
$GNRMC,050043.000,A,6115.1464,N,04639.0800,E,0.35,220.46,050118,,,A*7F
$GNRMC,050043.000,A,6115.1464,N,04639.0800,E,0.35,220.46,050118,,,A*7F
$GNRMC,050043.000,A,6115.1464,N,04639.0800,E,0.35,220.46,050118,,,A*7F
$GNRMC,050043.000,A,6115.1464,N,04639.0800,E,0.35,220.46,050118,,,A*7F
$GNRMC,050043.000,A,6115.1464,N,04639.0800,E,0.35,220.46,050118,,,A*7F
$GNRMC,050043.000,A,6115.1464,N,04639.0800,E,0.35,220.46,050118,,,A*7F
$GNRMC,050043.000,A,6115.1464,N,04639.0800,E,0.35,220.46,050118,,,A*7F
$GNRMC,050043.000,A,6115.1464,N,04639.0800,E,0.35,220.46,050118,,,A*7F
$GNRMC,050043.000,A,6115.1464,N,04639.0800,E,0.35,220.46,050118,,,A*7F
$GNRMC,050044.000,A,6115.1465,N,04639.0797,E,0.28,227.35,050118,,,A*77
$GNRMC,050044.000,A,6115.1465,N,04639.0797,E,0.28,227.35,050118,,,A*77
$GNRMC,050044.000,A,6115.1465,N,04639.0797,E,0.28,227.35,050118,,,A*77
$GNRMC,050044.000,A,6115.1465,N,04639.0797,E,0.28,227.35,050118,,,A*77
$GNRMC,050044.000,A,6115.1465,N,04639.0797,E,0.28,227.35,050118,,,A*77
$GNRMC,050044.000,A,6115.1465,N,04639.0797,E,0.28,227.35,050118,,,A*77
$GNRMC,050044.000,A,6115.1465,N,04639.0797,E,0.28,227.35,050118,,,A*77
$GNRMC,050044.000,A,6115.1465,N,04639.0797,E,0.28,227.35,050118,,,A*77
$GNRMC,050044.000,A,6115.1465,N,04639.0797,E,0.28,227.35,050118,,,A*77
$GNRMC,050044.000,A,6115.1465,N,04639.0797,E,0.28,227.35,050118,,,A*77
$GNRMC,050044.000,A,6115.1465,N,04639.0797,E,0.28,227.35,050118,,,A*77
$GNRMC,050045.000,A,6115.1465,N,04639.0799,E,0.08,261.50,050118,,,A*7B
$GNRMC,050045.000,A,6115.1465,N,04639.0799,E,0.08,261.50,050118,,,A*7B
$GNRMC,050045.000,A,6115.1465,N,04639.0799,E,0.08,261.50,050118,,,A*7B
$GNRMC,050045.000,A,6115.1465,N,04639.0799,E,0.08,261.50,050118,,,A*7B
$GNRMC,050045.000,A,6115.1465,N,04639.0799,E,0.08,261.50,050118,,,A*7B
$GNRMC,050045.000,A,6115.1465,N,04639.0799,E,0.08,261.50,050118,,,A*7B
$GNRMC,050045.000,A,6115.1465,N,04639.0799,E,0.08,261.50,050118,,,A*7B
$GNRMC,050045.000,A,6115.1465,N,04639.0799,E,0.08,261.50,050118,,,A*7B
$GNRMC,050045.000,A,6115.1465,N,04639.0799,E,0.08,261.50,050118,,,A*7B
$GNRMC,050046.000,A,6115.1468,N,04639.0798,E,0.17,188.27,050118,,,A*7E
$GNRMC,050046.000,A,6115.1468,N,04639.0798,E,0.17,188.27,050118,,,A*7E
$GNRMC,050046.000,A,6115.1468,N,04639.0798,E,0.17,188.27,050118,,,A*7E
$GNRMC,050046.000,A,6115.1468,N,04639.0798,E,0.17,188.27,050118,,,A*7E
$GNRMC,050046.000,A,6115.1468,N,04639.0798,E,0.17,188.27,050118,,,A*7E
$GNRMC,050046.000,A,6115.1468,N,04639.0798,E,0.17,188.27,050118,,,A*7E
$GNRMC,050046.000,A,6115.1468,N,04639.0798,E,0.17,188.27,050118,,,A*7E
$GNRMC,050046.000,A,6115.1468,N,04639.0798,E,0.17,188.27,050118,,,A*7E
$GNRMC,050046.000,A,6115.1468,N,04639.0798,E,0.17,188.27,050118,,,A*7E
$GNRMC,050046.000,A,6115.1468,N,04639.0798,E,0.17,188.27,050118,,,A*7E
$GNRMC,050047.000,A,6115.1467,N,04639.0796,E,0.33,245.33,050118,,,A*7F
$GNRMC,050047.000,A,6115.1467,N,04639.0796,E,0.33,245.33,050118,,,A*7F
$GNRMC,050047.000,A,6115.1467,N,04639.0796,E,0.33,245.33,050118,,,A*7F
$GNRMC,050047.000,A,6115.1467,N,04639.0796,E,0.33,245.33,050118,,,A*7F
$GNRMC,050047.000,A,6115.1467,N,04639.0796,E,0.33,245.33,050118,,,A*7F
$GNRMC,050047.000,A,6115.1467,N,04639.0796,E,0.33,245.33,050118,,,A*7F
$GNRMC,050047.000,A,6115.1467,N,04639.0796,E,0.33,245.33,050118,,,A*7F
$GNRMC,050047.000,A,6115.1467,N,04639.0796,E,0.33,245.33,050118,,,A*7F
$GNRMC,050047.000,A,6115.1467,N,04639.0796,E,0.33,245.33,050118,,,A*7F
$GNRMC,050047.000,A,6115.1467,N,04639.0796,E,0.33,245.33,050118,,,A*7F
$GNRMC,050047.000,A,6115.1467,N,04639.0796,E,0.33,245.33,050118,,,A*7F
$GNRMC,050048.000,A,6115.1467,N,04639.0795,E,0.66,231.89,050118,,,A*71
$GNRMC,050048.000,A,6115.1467,N,04639.0795,E,0.66,231.89,050118,,,A*71
$GNRMC,050048.000,A,6115.1467,N,04639.0795,E,0.66,231.89,050118,,,A*71
$GNRMC,050048.000,A,6115.1467,N,04639.0795,E,0.66,231.89,050118,,,A*71
$GNRMC,050048.000,A,6115.1467,N,04639.0795,E,0.66,231.89,050118,,,A*71
$GNRMC,050048.000,A,6115.1467,N,04639.0795,E,0.66,231.89,050118,,,A*71
$GNRMC,050048.000,A,6115.1467,N,04639.0795,E,0.66,231.89,050118,,,A*71
$GNRMC,050048.000,A,6115.1467,N,04639.0795,E,0.66,231.89,050118,,,A*71
$GNRMC,050048.000,A,6115.1467,N,04639.0795,E,0.66,231.89,050118,,,A*71
$GNRMC,050048.000,A,6115.1467,N,04639.0795,E,0.66,231.89,050118,,,A*71
$GNRMC,050049.000,A,6115.1466,N,04639.0793,E,0.63,247.25,050118,,,A*75
$GNRMC,050049.000,A,6115.1466,N,04639.0793,E,0.63,247.25,050118,,,A*75
$GNRMC,050049.000,A,6115.1466,N,04639.0793,E,0.63,247.25,050118,,,A*75
$GNRMC,050049.000,A,6115.1466,N,04639.0793,E,0.63,247.25,050118,,,A*75
$GNRMC,050049.000,A,6115.1466,N,04639.0793,E,0.63,247.25,050118,,,A*75
$GNRMC,050049.000,A,6115.1466,N,04639.0793,E,0.63,247.25,050118,,,A*75
$GNRMC,050049.000,A,6115.1466,N,04639.0793,E,0.63,247.25,050118,,,A*75
$GNRMC,050049.000,A,6115.1466,N,04639.0793,E,0.63,247.25,050118,,,A*75
$GNRMC,050049.000,A,6115.1466,N,04639.0793,E,0.63,247.25,050118,,,A*75
$GNRMC,050050.000,A,6115.1466,N,04639.0788,E,1.11,264.72,050118,,,A*70
$GNRMC,050050.000,A,6115.1466,N,04639.0788,E,1.11,264.72,050118,,,A*70
$GNRMC,050050.000,A,6115.1466,N,04639.0788,E,1.11,264.72,050118,,,A*70
$GNRMC,050050.000,A,6115.1466,N,04639.0788,E,1.11,264.72,050118,,,A*70
$GNRMC,050050.000,A,6115.1466,N,04639.0788,E,1.11,264.72,050118,,,A*70
$GNRMC,050050.000,A,6115.1466,N,04639.0788,E,1.11,264.72,050118,,,A*70
$GNRMC,050050.000,A,6115.1466,N,04639.0788,E,1.11,264.72,050118,,,A*70
$GNRMC,050050.000,A,6115.1466,N,04639.0788,E,1.11,264.72,050118,,,A*70
$GNRMC,050050.000,A,6115.1466,N,04639.0788,E,1.11,264.72,050118,,,A*70
$GNRMC,050050.000,A,6115.1466,N,04639.0788,E,1.11,264.72,050118,,,A*70
$GNRMC,050051.000,A,6115.1467,N,04639.0782,E,1.09,275.25,050118,,,A*71
$GNRMC,050051.000,A,6115.1467,N,04639.0782,E,1.09,275.25,050118,,,A*71
$GNRMC,050051.000,A,6115.1467,N,04639.0782,E,1.09,275.25,050118,,,A*71
$GNRMC,050051.000,A,6115.1467,N,04639.0782,E,1.09,275.25,050118,,,A*71
$GNRMC,050051.000,A,6115.1467,N,04639.0782,E,1.09,275.25,050118,,,A*71
$GNRMC,050051.000,A,6115.1467,N,04639.0782,E,1.09,275.25,050118,,,A*71
$GNRMC,050051.000,A,6115.1467,N,04639.0782,E,1.09,275.25,050118,,,A*71
$GNRMC,050051.000,A,6115.1467,N,04639.0782,E,1.09,275.25,050118,,,A*71
$GNRMC,050051.000,A,6115.1467,N,04639.0782,E,1.09,275.25,050118,,,A*71
$GNRMC,050051.000,A,6115.1467,N,04639.0782,E,1.09,275.25,050118,,,A*71
$GNRMC,050051.000,A,6115.1467,N,04639.0782,E,1.09,275.25,050118,,,A*71
$GNRMC,050052.000,A,6115.1468,N,04639.0778,E,0.88,274.82,050118,,,A*7C
$GNRMC,050052.000,A,6115.1468,N,04639.0778,E,0.88,274.82,050118,,,A*7C
$GNRMC,050052.000,A,6115.1468,N,04639.0778,E,0.88,274.82,050118,,,A*7C
$GNRMC,050052.000,A,6115.1468,N,04639.0778,E,0.88,274.82,050118,,,A*7C
$GNRMC,050052.000,A,6115.1468,N,04639.0778,E,0.88,274.82,050118,,,A*7C
$GNRMC,050052.000,A,6115.1468,N,04639.0778,E,0.88,274.82,050118,,,A*7C
$GNRMC,050052.000,A,6115.1468,N,04639.0778,E,0.88,274.82,050118,,,A*7C
$GNRMC,050052.000,A,6115.1468,N,04639.0778,E,0.88,274.82,050118,,,A*7C
$GNRMC,050052.000,A,6115.1468,N,04639.0778,E,0.88,274.82,050118,,,A*7C
$GNRMC,050052.000,A,6115.1468,N,04639.0778,E,0.88,274.82,050118,,,A*7C
$GNRMC,050053.000,A,6115.1470,N,04639.0772,E,1.12,290.92,050118,,,A*77
$GNRMC,050053.000,A,6115.1470,N,04639.0772,E,1.12,290.92,050118,,,A*77
$GNRMC,050053.000,A,6115.1470,N,04639.0772,E,1.12,290.92,050118,,,A*77
$GNRMC,050053.000,A,6115.1470,N,04639.0772,E,1.12,290.92,050118,,,A*77
$GNRMC,050053.000,A,6115.1470,N,04639.0772,E,1.12,290.92,050118,,,A*77
$GNRMC,050053.000,A,6115.1470,N,04639.0772,E,1.12,290.92,050118,,,A*77
$GNRMC,050053.000,A,6115.1470,N,04639.0772,E,1.12,290.92,050118,,,A*77
$GNRMC,050053.000,A,6115.1470,N,04639.0772,E,1.12,290.92,050118,,,A*77
$GNRMC,050053.000,A,6115.1470,N,04639.0772,E,1.12,290.92,050118,,,A*77
$GNRMC,050053.000,A,6115.1470,N,04639.0772,E,1.12,290.92,050118,,,A*77
$GNRMC,050054.000,A,6115.1471,N,04639.0767,E,1.21,296.77,050118,,,A*78
$GNRMC,050054.000,A,6115.1471,N,04639.0767,E,1.21,296.77,050118,,,A*78
$GNRMC,050054.000,A,6115.1471,N,04639.0767,E,1.21,296.77,050118,,,A*78
$GNRMC,050054.000,A,6115.1471,N,04639.0767,E,1.21,296.77,050118,,,A*78
$GNRMC,050054.000,A,6115.1471,N,04639.0767,E,1.21,296.77,050118,,,A*78
$GNRMC,050054.000,A,6115.1471,N,04639.0767,E,1.21,296.77,050118,,,A*78
$GNRMC,050054.000,A,6115.1471,N,04639.0767,E,1.21,296.77,050118,,,A*78
$GNRMC,050054.000,A,6115.1471,N,04639.0767,E,1.21,296.77,050118,,,A*78
$GNRMC,050054.000,A,6115.1471,N,04639.0767,E,1.21,296.77,050118,,,A*78
$GNRMC,050055.000,A,6115.1471,N,04639.0762,E,1.05,291.92,050118,,,A*76
$GNRMC,050055.000,A,6115.1471,N,04639.0762,E,1.05,291.92,050118,,,A*76
$GNRMC,050055.000,A,6115.1471,N,04639.0762,E,1.05,291.92,050118,,,A*76
$GNRMC,050055.000,A,6115.1471,N,04639.0762,E,1.05,291.92,050118,,,A*76
$GNRMC,050055.000,A,6115.1471,N,04639.0762,E,1.05,291.92,050118,,,A*76
$GNRMC,050055.000,A,6115.1471,N,04639.0762,E,1.05,291.92,050118,,,A*76
$GNRMC,050055.000,A,6115.1471,N,04639.0762,E,1.05,291.92,050118,,,A*76
$GNRMC,050055.000,A,6115.1471,N,04639.0762,E,1.05,291.92,050118,,,A*76
$GNRMC,050055.000,A,6115.1471,N,04639.0762,E,1.05,291.92,050118,,,A*76
$GNRMC,050055.000,A,6115.1471,N,04639.0762,E,1.05,291.92,050118,,,A*76
$GNRMC,050055.000,A,6115.1471,N,04639.0762,E,1.05,291.92,050118,,,A*76
$GNRMC,050056.000,A,6115.1471,N,04639.0760,E,0.43,283.79,050118,,,A*72
$GNRMC,050056.000,A,6115.1471,N,04639.0760,E,0.43,283.79,050118,,,A*72
$GNRMC,050056.000,A,6115.1471,N,04639.0760,E,0.43,283.79,050118,,,A*72
$GNRMC,050056.000,A,6115.1471,N,04639.0760,E,0.43,283.79,050118,,,A*72
$GNRMC,050056.000,A,6115.1471,N,04639.0760,E,0.43,283.79,050118,,,A*72
$GNRMC,050056.000,A,6115.1471,N,04639.0760,E,0.43,283.79,050118,,,A*72
$GNRMC,050056.000,A,6115.1471,N,04639.0760,E,0.43,283.79,050118,,,A*72
$GNRMC,050056.000,A,6115.1471,N,04639.0760,E,0.43,283.79,050118,,,A*72
$GNRMC,050056.000,A,6115.1471,N,04639.0760,E,0.43,283.79,050118,,,A*72
$GNRMC,050057.000,A,6115.1469,N,04639.0761,E,0.04,260.80,050118,,,A*73
$GNRMC,050057.000,A,6115.1469,N,04639.0761,E,0.04,260.80,050118,,,A*73
$GNRMC,050057.000,A,6115.1469,N,04639.0761,E,0.04,260.80,050118,,,A*73
$GNRMC,050057.000,A,6115.1469,N,04639.0761,E,0.04,260.80,050118,,,A*73
$GNRMC,050057.000,A,6115.1469,N,04639.0761,E,0.04,260.80,050118,,,A*73
$GNRMC,050057.000,A,6115.1469,N,04639.0761,E,0.04,260.80,050118,,,A*73
$GNRMC,050057.000,A,6115.1469,N,04639.0761,E,0.04,260.80,050118,,,A*73
$GNRMC,050057.000,A,6115.1469,N,04639.0761,E,0.04,260.80,050118,,,A*73
$GNRMC,050057.000,A,6115.1469,N,04639.0761,E,0.04,260.80,050118,,,A*73
$GNRMC,050057.000,A,6115.1469,N,04639.0761,E,0.04,260.80,050118,,,A*73
$GNRMC,050058.000,A,6115.1468,N,04639.0763,E,0.03,180.80,050118,,,A*75
$GNRMC,050058.000,A,6115.1468,N,04639.0763,E,0.03,180.80,050118,,,A*75
$GNRMC,050058.000,A,6115.1468,N,04639.0763,E,0.03,180.80,050118,,,A*75
$GNRMC,050058.000,A,6115.1468,N,04639.0763,E,0.03,180.80,050118,,,A*75
$GNRMC,050058.000,A,6115.1468,N,04639.0763,E,0.03,180.80,050118,,,A*75
$GNRMC,050058.000,A,6115.1468,N,04639.0763,E,0.03,180.80,050118,,,A*75
$GNRMC,050058.000,A,6115.1468,N,04639.0763,E,0.03,180.80,050118,,,A*75
$GNRMC,050058.000,A,6115.1468,N,04639.0763,E,0.03,180.80,050118,,,A*75
$GNRMC,050058.000,A,6115.1468,N,04639.0763,E,0.03,180.80,050118,,,A*75
$GNRMC,050058.000,A,6115.1468,N,04639.0763,E,0.03,180.80,050118,,,A*75
$GNRMC,050058.000,A,6115.1468,N,04639.0763,E,0.03,180.80,050118,,,A*75
$GNRMC,050059.000,A,6115.1467,N,04639.0765,E,0.02,283.84,050118,,,A*78
$GNRMC,050059.000,A,6115.1467,N,04639.0765,E,0.02,283.84,050118,,,A*78
$GNRMC,050059.000,A,6115.1467,N,04639.0765,E,0.02,283.84,050118,,,A*78
$GNRMC,050059.000,A,6115.1467,N,04639.0765,E,0.02,283.84,050118,,,A*78
$GNRMC,050059.000,A,6115.1467,N,04639.0765,E,0.02,283.84,050118,,,A*78
$GNRMC,050059.000,A,6115.1467,N,04639.0765,E,0.02,283.84,050118,,,A*78
$GNRMC,050059.000,A,6115.1467,N,04639.0765,E,0.02,283.84,050118,,,A*78
$GNRMC,050059.000,A,6115.1467,N,04639.0765,E,0.02,283.84,050118,,,A*78
$GNRMC,050059.000,A,6115.1467,N,04639.0765,E,0.02,283.84,050118,,,A*78
$GNRMC,050100.000,A,6115.1466,N,04639.0766,E,0.02,320.18,050118,,,A*7A
$GNRMC,050100.000,A,6115.1466,N,04639.0766,E,0.02,320.18,050118,,,A*7A
$GNRMC,050100.000,A,6115.1466,N,04639.0766,E,0.02,320.18,050118,,,A*7A
$GNRMC,050100.000,A,6115.1466,N,04639.0766,E,0.02,320.18,050118,,,A*7A
$GNRMC,050100.000,A,6115.1466,N,04639.0766,E,0.02,320.18,050118,,,A*7A
$GNRMC,050100.000,A,6115.1466,N,04639.0766,E,0.02,320.18,050118,,,A*7A
$GNRMC,050100.000,A,6115.1466,N,04639.0766,E,0.02,320.18,050118,,,A*7A
$GNRMC,050100.000,A,6115.1466,N,04639.0766,E,0.02,320.18,050118,,,A*7A
$GNRMC,050100.000,A,6115.1466,N,04639.0766,E,0.02,320.18,050118,,,A*7A
$GNRMC,050100.000,A,6115.1466,N,04639.0766,E,0.02,320.18,050118,,,A*7A
$GNRMC,050100.000,A,6115.1466,N,04639.0766,E,0.02,320.18,050118,,,A*7A
$GNRMC,050101.000,A,6115.1465,N,04639.0767,E,0.02,238.76,050118,,,A*79
$GNRMC,050101.000,A,6115.1465,N,04639.0767,E,0.02,238.76,050118,,,A*79
$GNRMC,050101.000,A,6115.1465,N,04639.0767,E,0.02,238.76,050118,,,A*79
$GNRMC,050101.000,A,6115.1465,N,04639.0767,E,0.02,238.76,050118,,,A*79
$GNRMC,050101.000,A,6115.1465,N,04639.0767,E,0.02,238.76,050118,,,A*79
$GNRMC,050101.000,A,6115.1465,N,04639.0767,E,0.02,238.76,050118,,,A*79
$GNRMC,050101.000,A,6115.1465,N,04639.0767,E,0.02,238.76,050118,,,A*79
$GNRMC,050101.000,A,6115.1465,N,04639.0767,E,0.02,238.76,050118,,,A*79
$GNRMC,050101.000,A,6115.1465,N,04639.0767,E,0.02,238.76,050118,,,A*79
$GNRMC,050101.000,A,6115.1465,N,04639.0767,E,0.02,238.76,050118,,,A*79
$GNRMC,050102.000,A,6115.1465,N,04639.0768,E,0.11,240.19,050118,,,A*71
$GNRMC,050102.000,A,6115.1465,N,04639.0768,E,0.11,240.19,050118,,,A*71
$GNRMC,050102.000,A,6115.1465,N,04639.0768,E,0.11,240.19,050118,,,A*71
$GNRMC,050102.000,A,6115.1465,N,04639.0768,E,0.11,240.19,050118,,,A*71
$GNRMC,050102.000,A,6115.1465,N,04639.0768,E,0.11,240.19,050118,,,A*71
$GNRMC,050102.000,A,6115.1465,N,04639.0768,E,0.11,240.19,050118,,,A*71
$GNRMC,050102.000,A,6115.1465,N,04639.0768,E,0.11,240.19,050118,,,A*71
$GNRMC,050102.000,A,6115.1465,N,04639.0768,E,0.11,240.19,050118,,,A*71
$GNRMC,050102.000,A,6115.1465,N,04639.0768,E,0.11,240.19,050118,,,A*71
$GNRMC,050103.000,A,6115.1466,N,04639.0768,E,0.60,292.05,050118,,,A*77
$GNRMC,050103.000,A,6115.1466,N,04639.0768,E,0.60,292.05,050118,,,A*77
$GNRMC,050103.000,A,6115.1466,N,04639.0768,E,0.60,292.05,050118,,,A*77
$GNRMC,050103.000,A,6115.1466,N,04639.0768,E,0.60,292.05,050118,,,A*77
$GNRMC,050103.000,A,6115.1466,N,04639.0768,E,0.60,292.05,050118,,,A*77
$GNRMC,050103.000,A,6115.1466,N,04639.0768,E,0.60,292.05,050118,,,A*77
$GNRMC,050103.000,A,6115.1466,N,04639.0768,E,0.60,292.05,050118,,,A*77
$GNRMC,050103.000,A,6115.1466,N,04639.0768,E,0.60,292.05,050118,,,A*77
$GNRMC,050103.000,A,6115.1466,N,04639.0768,E,0.60,292.05,050118,,,A*77
$GNRMC,050103.000,A,6115.1466,N,04639.0768,E,0.60,292.05,050118,,,A*77
$GNRMC,050103.000,A,6115.1466,N,04639.0768,E,0.60,292.05,050118,,,A*77
$GNRMC,050104.000,A,6115.1468,N,04639.0764,E,0.84,290.52,050118,,,A*78
$GNRMC,050104.000,A,6115.1468,N,04639.0764,E,0.84,290.52,050118,,,A*78
$GNRMC,050104.000,A,6115.1468,N,04639.0764,E,0.84,290.52,050118,,,A*78
$GNRMC,050104.000,A,6115.1468,N,04639.0764,E,0.84,290.52,050118,,,A*78
$GNRMC,050104.000,A,6115.1468,N,04639.0764,E,0.84,290.52,050118,,,A*78
$GNRMC,050104.000,A,6115.1468,N,04639.0764,E,0.84,290.52,050118,,,A*78
$GNRMC,050104.000,A,6115.1468,N,04639.0764,E,0.84,290.52,050118,,,A*78
$GNRMC,050104.000,A,6115.1468,N,04639.0764,E,0.84,290.52,050118,,,A*78
$GNRMC,050104.000,A,6115.1468,N,04639.0764,E,0.84,290.52,050118,,,A*78
$GNRMC,050104.000,A,6115.1468,N,04639.0764,E,0.84,290.52,050118,,,A*78
$GNRMC,050105.000,A,6115.1469,N,04639.0759,E,1.22,293.07,050118,,,A*78
$GNRMC,050105.000,A,6115.1469,N,04639.0759,E,1.22,293.07,050118,,,A*78
$GNRMC,050105.000,A,6115.1469,N,04639.0759,E,1.22,293.07,050118,,,A*78
$GNRMC,050105.000,A,6115.1469,N,04639.0759,E,1.22,293.07,050118,,,A*78
$GNRMC,050105.000,A,6115.1469,N,04639.0759,E,1.22,293.07,050118,,,A*78
$GNRMC,050105.000,A,6115.1469,N,04639.0759,E,1.22,293.07,050118,,,A*78
$GNRMC,050105.000,A,6115.1469,N,04639.0759,E,1.22,293.07,050118,,,A*78
$GNRMC,050105.000,A,6115.1469,N,04639.0759,E,1.22,293.07,050118,,,A*78
$GNRMC,050105.000,A,6115.1469,N,04639.0759,E,1.22,293.07,050118,,,A*78
$GNRMC,050105.000,A,6115.1469,N,04639.0759,E,1.22,293.07,050118,,,A*78
$GNRMC,050106.000,A,6115.1472,N,04639.0750,E,2.10,286.95,050118,,,A*75
$GNRMC,050106.000,A,6115.1472,N,04639.0750,E,2.10,286.95,050118,,,A*75
$GNRMC,050106.000,A,6115.1472,N,04639.0750,E,2.10,286.95,050118,,,A*75
$GNRMC,050106.000,A,6115.1472,N,04639.0750,E,2.10,286.95,050118,,,A*75
$GNRMC,050106.000,A,6115.1472,N,04639.0750,E,2.10,286.95,050118,,,A*75
$GNRMC,050106.000,A,6115.1472,N,04639.0750,E,2.10,286.95,050118,,,A*75
$GNRMC,050106.000,A,6115.1472,N,04639.0750,E,2.10,286.95,050118,,,A*75
$GNRMC,050106.000,A,6115.1472,N,04639.0750,E,2.10,286.95,050118,,,A*75
$GNRMC,050106.000,A,6115.1472,N,04639.0750,E,2.10,286.95,050118,,,A*75
$GNRMC,050106.000,A,6115.1472,N,04639.0750,E,2.10,286.95,050118,,,A*75
$GNRMC,050107.000,A,6115.1475,N,04639.0742,E,1.03,286.33,050118,,,A*7D
$GNRMC,050107.000,A,6115.1475,N,04639.0742,E,1.03,286.33,050118,,,A*7D
$GNRMC,050107.000,A,6115.1475,N,04639.0742,E,1.03,286.33,050118,,,A*7D
$GNRMC,050107.000,A,6115.1475,N,04639.0742,E,1.03,286.33,050118,,,A*7D
$GNRMC,050107.000,A,6115.1475,N,04639.0742,E,1.03,286.33,050118,,,A*7D
$GNRMC,050107.000,A,6115.1475,N,04639.0742,E,1.03,286.33,050118,,,A*7D
$GNRMC,050107.000,A,6115.1475,N,04639.0742,E,1.03,286.33,050118,,,A*7D
$GNRMC,050107.000,A,6115.1475,N,04639.0742,E,1.03,286.33,050118,,,A*7D
$GNRMC,050107.000,A,6115.1475,N,04639.0742,E,1.03,286.33,050118,,,A*7D
$GNRMC,050108.000,A,6115.1478,N,04639.0737,E,1.14,298.63,050118,,,A*71
$GNRMC,050108.000,A,6115.1478,N,04639.0737,E,1.14,298.63,050118,,,A*71
$GNRMC,050108.000,A,6115.1478,N,04639.0737,E,1.14,298.63,050118,,,A*71
$GNRMC,050108.000,A,6115.1478,N,04639.0737,E,1.14,298.63,050118,,,A*71
$GNRMC,050108.000,A,6115.1478,N,04639.0737,E,1.14,298.63,050118,,,A*71
$GNRMC,050108.000,A,6115.1478,N,04639.0737,E,1.14,298.63,050118,,,A*71
$GNRMC,050108.000,A,6115.1478,N,04639.0737,E,1.14,298.63,050118,,,A*71
$GNRMC,050108.000,A,6115.1478,N,04639.0737,E,1.14,298.63,050118,,,A*71
$GNRMC,050108.000,A,6115.1478,N,04639.0737,E,1.14,298.63,050118,,,A*71
$GNRMC,050108.000,A,6115.1478,N,04639.0737,E,1.14,298.63,050118,,,A*71
$GNRMC,050109.000,A,6115.1481,N,04639.0730,E,1.56,301.91,050118,,,A*7B
$GNRMC,050109.000,A,6115.1481,N,04639.0730,E,1.56,301.91,050118,,,A*7B
$GNRMC,050109.000,A,6115.1481,N,04639.0730,E,1.56,301.91,050118,,,A*7B
$GNRMC,050109.000,A,6115.1481,N,04639.0730,E,1.56,301.91,050118,,,A*7B
$GNRMC,050109.000,A,6115.1481,N,04639.0730,E,1.56,301.91,050118,,,A*7B
$GNRMC,050109.000,A,6115.1481,N,04639.0730,E,1.56,301.91,050118,,,A*7B
$GNRMC,050109.000,A,6115.1481,N,04639.0730,E,1.56,301.91,050118,,,A*7B
$GNRMC,050109.000,A,6115.1481,N,04639.0730,E,1.56,301.91,050118,,,A*7B
$GNRMC,050109.000,A,6115.1481,N,04639.0730,E,1.56,301.91,050118,,,A*7B
$GNRMC,050109.000,A,6115.1481,N,04639.0730,E,1.56,301.91,050118,,,A*7B
$GNRMC,050109.000,A,6115.1481,N,04639.0730,E,1.56,301.91,050118,,,A*7B
$GNRMC,050110.000,A,6115.1482,N,04639.0727,E,1.88,287.37,050118,,,A*76
$GNRMC,050110.000,A,6115.1482,N,04639.0727,E,1.88,287.37,050118,,,A*76
$GNRMC,050110.000,A,6115.1482,N,04639.0727,E,1.88,287.37,050118,,,A*76
$GNRMC,050110.000,A,6115.1482,N,04639.0727,E,1.88,287.37,050118,,,A*76
$GNRMC,050110.000,A,6115.1482,N,04639.0727,E,1.88,287.37,050118,,,A*76
$GNRMC,050110.000,A,6115.1482,N,04639.0727,E,1.88,287.37,050118,,,A*76
$GNRMC,050110.000,A,6115.1482,N,04639.0727,E,1.88,287.37,050118,,,A*76
$GNRMC,050110.000,A,6115.1482,N,04639.0727,E,1.88,287.37,050118,,,A*76
$GNRMC,050110.000,A,6115.1482,N,04639.0727,E,1.88,287.37,050118,,,A*76
$GNRMC,050110.000,A,6115.1482,N,04639.0727,E,1.88,287.37,050118,,,A*76
$GNRMC,050111.000,A,6115.1484,N,04639.0718,E,1.92,269.50,050118,,,A*77
$GNRMC,050111.000,A,6115.1484,N,04639.0718,E,1.92,269.50,050118,,,A*77
$GNRMC,050111.000,A,6115.1484,N,04639.0718,E,1.92,269.50,050118,,,A*77
$GNRMC,050111.000,A,6115.1484,N,04639.0718,E,1.92,269.50,050118,,,A*77
$GNRMC,050111.000,A,6115.1484,N,04639.0718,E,1.92,269.50,050118,,,A*77
$GNRMC,050111.000,A,6115.1484,N,04639.0718,E,1.92,269.50,050118,,,A*77
$GNRMC,050111.000,A,6115.1484,N,04639.0718,E,1.92,269.50,050118,,,A*77
$GNRMC,050111.000,A,6115.1484,N,04639.0718,E,1.92,269.50,050118,,,A*77
$GNRMC,050111.000,A,6115.1484,N,04639.0718,E,1.92,269.50,050118,,,A*77
$GNRMC,050112.000,A,6115.1484,N,04639.0711,E,0.44,263.75,050118,,,A*7A
$GNRMC,050112.000,A,6115.1484,N,04639.0711,E,0.44,263.75,050118,,,A*7A
$GNRMC,050112.000,A,6115.1484,N,04639.0711,E,0.44,263.75,050118,,,A*7A
$GNRMC,050112.000,A,6115.1484,N,04639.0711,E,0.44,263.75,050118,,,A*7A
$GNRMC,050112.000,A,6115.1484,N,04639.0711,E,0.44,263.75,050118,,,A*7A
$GNRMC,050112.000,A,6115.1484,N,04639.0711,E,0.44,263.75,050118,,,A*7A
$GNRMC,050112.000,A,6115.1484,N,04639.0711,E,0.44,263.75,050118,,,A*7A
$GNRMC,050112.000,A,6115.1484,N,04639.0711,E,0.44,263.75,050118,,,A*7A
$GNRMC,050112.000,A,6115.1484,N,04639.0711,E,0.44,263.75,050118,,,A*7A
$GNRMC,050112.000,A,6115.1484,N,04639.0711,E,0.44,263.75,050118,,,A*7A
$GNRMC,050112.000,A,6115.1484,N,04639.0711,E,0.44,263.75,050118,,,A*7A
$GNRMC,050113.000,A,6115.1486,N,04639.0710,E,0.15,38.16,050118,,,A*45
$GNRMC,050113.000,A,6115.1486,N,04639.0710,E,0.15,38.16,050118,,,A*45
$GNRMC,050113.000,A,6115.1486,N,04639.0710,E,0.15,38.16,050118,,,A*45
$GNRMC,050113.000,A,6115.1486,N,04639.0710,E,0.15,38.16,050118,,,A*45
$GNRMC,050113.000,A,6115.1486,N,04639.0710,E,0.15,38.16,050118,,,A*45
$GNRMC,050113.000,A,6115.1486,N,04639.0710,E,0.15,38.16,050118,,,A*45
$GNRMC,050113.000,A,6115.1486,N,04639.0710,E,0.15,38.16,050118,,,A*45
$GNRMC,050113.000,A,6115.1486,N,04639.0710,E,0.15,38.16,050118,,,A*45
$GNRMC,050113.000,A,6115.1486,N,04639.0710,E,0.15,38.16,050118,,,A*45
$GNRMC,050113.000,A,6115.1486,N,04639.0710,E,0.15,38.16,050118,,,A*45
$GNRMC,050114.000,A,6115.1489,N,04639.0712,E,1.57,29.88,050118,,,A*4F
$GNRMC,050114.000,A,6115.1489,N,04639.0712,E,1.57,29.88,050118,,,A*4F
$GNRMC,050114.000,A,6115.1489,N,04639.0712,E,1.57,29.88,050118,,,A*4F
$GNRMC,050114.000,A,6115.1489,N,04639.0712,E,1.57,29.88,050118,,,A*4F
$GNRMC,050114.000,A,6115.1489,N,04639.0712,E,1.57,29.88,050118,,,A*4F
$GNRMC,050114.000,A,6115.1489,N,04639.0712,E,1.57,29.88,050118,,,A*4F
$GNRMC,050114.000,A,6115.1489,N,04639.0712,E,1.57,29.88,050118,,,A*4F
$GNRMC,050114.000,A,6115.1489,N,04639.0712,E,1.57,29.88,050118,,,A*4F
$GNRMC,050114.000,A,6115.1489,N,04639.0712,E,1.57,29.88,050118,,,A*4F
$GNRMC,050115.000,A,6115.1497,N,04639.0717,E,3.92,20.37,050118,,,A*42
$GNRMC,050115.000,A,6115.1497,N,04639.0717,E,3.92,20.37,050118,,,A*42
$GNRMC,050115.000,A,6115.1497,N,04639.0717,E,3.92,20.37,050118,,,A*42
$GNRMC,050115.000,A,6115.1497,N,04639.0717,E,3.92,20.37,050118,,,A*42
$GNRMC,050115.000,A,6115.1497,N,04639.0717,E,3.92,20.37,050118,,,A*42
$GNRMC,050115.000,A,6115.1497,N,04639.0717,E,3.92,20.37,050118,,,A*42
$GNRMC,050115.000,A,6115.1497,N,04639.0717,E,3.92,20.37,050118,,,A*42
$GNRMC,050115.000,A,6115.1497,N,04639.0717,E,3.92,20.37,050118,,,A*42
$GNRMC,050115.000,A,6115.1497,N,04639.0717,E,3.92,20.37,050118,,,A*42
$GNRMC,050115.000,A,6115.1497,N,04639.0717,E,3.92,20.37,050118,,,A*42
$GNRMC,050115.000,A,6115.1497,N,04639.0717,E,3.92,20.37,050118,,,A*42
$GNRMC,050116.000,A,6115.1512,N,04639.0725,E,5.84,16.44,050118,,,A*4C
$GNRMC,050116.000,A,6115.1512,N,04639.0725,E,5.84,16.44,050118,,,A*4C
$GNRMC,050116.000,A,6115.1512,N,04639.0725,E,5.84,16.44,050118,,,A*4C
$GNRMC,050116.000,A,6115.1512,N,04639.0725,E,5.84,16.44,050118,,,A*4C
$GNRMC,050116.000,A,6115.1512,N,04639.0725,E,5.84,16.44,050118,,,A*4C
$GNRMC,050116.000,A,6115.1512,N,04639.0725,E,5.84,16.44,050118,,,A*4C
$GNRMC,050116.000,A,6115.1512,N,04639.0725,E,5.84,16.44,050118,,,A*4C
$GNRMC,050116.000,A,6115.1512,N,04639.0725,E,5.84,16.44,050118,,,A*4C
$GNRMC,050116.000,A,6115.1512,N,04639.0725,E,5.84,16.44,050118,,,A*4C
$GNRMC,050116.000,A,6115.1512,N,04639.0725,E,5.84,16.44,050118,,,A*4C
$GNRMC,050117.000,A,6115.1530,N,04639.0736,E,7.25,17.76,050118,,,A*46
$GNRMC,050117.000,A,6115.1530,N,04639.0736,E,7.25,17.76,050118,,,A*46
$GNRMC,050117.000,A,6115.1530,N,04639.0736,E,7.25,17.76,050118,,,A*46
$GNRMC,050117.000,A,6115.1530,N,04639.0736,E,7.25,17.76,050118,,,A*46
$GNRMC,050117.000,A,6115.1530,N,04639.0736,E,7.25,17.76,050118,,,A*46
$GNRMC,050117.000,A,6115.1530,N,04639.0736,E,7.25,17.76,050118,,,A*46
$GNRMC,050117.000,A,6115.1530,N,04639.0736,E,7.25,17.76,050118,,,A*46
$GNRMC,050117.000,A,6115.1530,N,04639.0736,E,7.25,17.76,050118,,,A*46
$GNRMC,050117.000,A,6115.1530,N,04639.0736,E,7.25,17.76,050118,,,A*46
$GNRMC,050117.000,A,6115.1530,N,04639.0736,E,7.25,17.76,050118,,,A*46
$GNRMC,050118.000,A,6115.1553,N,04639.0749,E,8.36,18.37,050118,,,A*43
$GNRMC,050118.000,A,6115.1553,N,04639.0749,E,8.36,18.37,050118,,,A*43
$GNRMC,050118.000,A,6115.1553,N,04639.0749,E,8.36,18.37,050118,,,A*43
$GNRMC,050118.000,A,6115.1553,N,04639.0749,E,8.36,18.37,050118,,,A*43
$GNRMC,050118.000,A,6115.1553,N,04639.0749,E,8.36,18.37,050118,,,A*43
$GNRMC,050118.000,A,6115.1553,N,04639.0749,E,8.36,18.37,050118,,,A*43
$GNRMC,050118.000,A,6115.1553,N,04639.0749,E,8.36,18.37,050118,,,A*43
$GNRMC,050118.000,A,6115.1553,N,04639.0749,E,8.36,18.37,050118,,,A*43
$GNRMC,050118.000,A,6115.1553,N,04639.0749,E,8.36,18.37,050118,,,A*43
$GNRMC,050118.000,A,6115.1553,N,04639.0749,E,8.36,18.37,050118,,,A*43
$GNRMC,050118.000,A,6115.1553,N,04639.0749,E,8.36,18.37,050118,,,A*43
$GNRMC,050118.000,A,6115.1553,N,04639.0749,E,8.36,18.37,050118,,,A*43
$GNRMC,050119.000,A,6115.1578,N,04639.0765,E,9.72,18.36,050118,,,A*45
$GNRMC,050119.000,A,6115.1578,N,04639.0765,E,9.72,18.36,050118,,,A*45
$GNRMC,050119.000,A,6115.1578,N,04639.0765,E,9.72,18.36,050118,,,A*45
$GNRMC,050119.000,A,6115.1578,N,04639.0765,E,9.72,18.36,050118,,,A*45
$GNRMC,050119.000,A,6115.1578,N,04639.0765,E,9.72,18.36,050118,,,A*45
$GNRMC,050119.000,A,6115.1578,N,04639.0765,E,9.72,18.36,050118,,,A*45
$GNRMC,050119.000,A,6115.1578,N,04639.0765,E,9.72,18.36,050118,,,A*45
$GNRMC,050119.000,A,6115.1578,N,04639.0765,E,9.72,18.36,050118,,,A*45
$GNRMC,050120.000,A,6115.1606,N,04639.0783,E,10.98,18.42,050118,,,A*72
$GNRMC,050120.000,A,6115.1606,N,04639.0783,E,10.98,18.42,050118,,,A*72
$GNRMC,050120.000,A,6115.1606,N,04639.0783,E,10.98,18.42,050118,,,A*72
$GNRMC,050120.000,A,6115.1606,N,04639.0783,E,10.98,18.42,050118,,,A*72
$GNRMC,050120.000,A,6115.1606,N,04639.0783,E,10.98,18.42,050118,,,A*72
$GNRMC,050120.000,A,6115.1606,N,04639.0783,E,10.98,18.42,050118,,,A*72
$GNRMC,050120.000,A,6115.1606,N,04639.0783,E,10.98,18.42,050118,,,A*72
$GNRMC,050120.000,A,6115.1606,N,04639.0783,E,10.98,18.42,050118,,,A*72
$GNRMC,050120.000,A,6115.1606,N,04639.0783,E,10.98,18.42,050118,,,A*72
$GNRMC,050120.000,A,6115.1606,N,04639.0783,E,10.98,18.42,050118,,,A*72
$GNRMC,050121.000,A,6115.1638,N,04639.0803,E,12.15,18.21,050118,,,A*7B
$GNRMC,050121.000,A,6115.1638,N,04639.0803,E,12.15,18.21,050118,,,A*7B
$GNRMC,050121.000,A,6115.1638,N,04639.0803,E,12.15,18.21,050118,,,A*7B
$GNRMC,050121.000,A,6115.1638,N,04639.0803,E,12.15,18.21,050118,,,A*7B
$GNRMC,050121.000,A,6115.1638,N,04639.0803,E,12.15,18.21,050118,,,A*7B
$GNRMC,050121.000,A,6115.1638,N,04639.0803,E,12.15,18.21,050118,,,A*7B
$GNRMC,050121.000,A,6115.1638,N,04639.0803,E,12.15,18.21,050118,,,A*7B
$GNRMC,050121.000,A,6115.1638,N,04639.0803,E,12.15,18.21,050118,,,A*7B
$GNRMC,050121.000,A,6115.1638,N,04639.0803,E,12.15,18.21,050118,,,A*7B
$GNRMC,050121.000,A,6115.1638,N,04639.0803,E,12.15,18.21,050118,,,A*7B
$GNRMC,050122.000,A,6115.1672,N,04639.0824,E,13.08,18.00,050118,,,A*7D
$GNRMC,050122.000,A,6115.1672,N,04639.0824,E,13.08,18.00,050118,,,A*7D
$GNRMC,050122.000,A,6115.1672,N,04639.0824,E,13.08,18.00,050118,,,A*7D
$GNRMC,050122.000,A,6115.1672,N,04639.0824,E,13.08,18.00,050118,,,A*7D
$GNRMC,050122.000,A,6115.1672,N,04639.0824,E,13.08,18.00,050118,,,A*7D
$GNRMC,050122.000,A,6115.1672,N,04639.0824,E,13.08,18.00,050118,,,A*7D
$GNRMC,050122.000,A,6115.1672,N,04639.0824,E,13.08,18.00,050118,,,A*7D
$GNRMC,050122.000,A,6115.1672,N,04639.0824,E,13.08,18.00,050118,,,A*7D
$GNRMC,050122.000,A,6115.1672,N,04639.0824,E,13.08,18.00,050118,,,A*7D
$GNRMC,050122.000,A,6115.1672,N,04639.0824,E,13.08,18.00,050118,,,A*7D
$GNRMC,050123.000,A,6115.1709,N,04639.0847,E,13.98,17.88,050118,,,A*72
$GNRMC,050123.000,A,6115.1709,N,04639.0847,E,13.98,17.88,050118,,,A*72
$GNRMC,050123.000,A,6115.1709,N,04639.0847,E,13.98,17.88,050118,,,A*72
$GNRMC,050123.000,A,6115.1709,N,04639.0847,E,13.98,17.88,050118,,,A*72
$GNRMC,050123.000,A,6115.1709,N,04639.0847,E,13.98,17.88,050118,,,A*72
$GNRMC,050123.000,A,6115.1709,N,04639.0847,E,13.98,17.88,050118,,,A*72
$GNRMC,050123.000,A,6115.1709,N,04639.0847,E,13.98,17.88,050118,,,A*72
$GNRMC,050123.000,A,6115.1709,N,04639.0847,E,13.98,17.88,050118,,,A*72
$GNRMC,050123.000,A,6115.1709,N,04639.0847,E,13.98,17.88,050118,,,A*72
$GNRMC,050123.000,A,6115.1709,N,04639.0847,E,13.98,17.88,050118,,,A*72
$GNRMC,050124.000,A,6115.1748,N,04639.0870,E,14.81,17.45,050118,,,A*7A
$GNRMC,050124.000,A,6115.1748,N,04639.0870,E,14.81,17.45,050118,,,A*7A
$GNRMC,050124.000,A,6115.1748,N,04639.0870,E,14.81,17.45,050118,,,A*7A
$GNRMC,050124.000,A,6115.1748,N,04639.0870,E,14.81,17.45,050118,,,A*7A
$GNRMC,050124.000,A,6115.1748,N,04639.0870,E,14.81,17.45,050118,,,A*7A
$GNRMC,050124.000,A,6115.1748,N,04639.0870,E,14.81,17.45,050118,,,A*7A
$GNRMC,050124.000,A,6115.1748,N,04639.0870,E,14.81,17.45,050118,,,A*7A
$GNRMC,050124.000,A,6115.1748,N,04639.0870,E,14.81,17.45,050118,,,A*7A
$GNRMC,050124.000,A,6115.1748,N,04639.0870,E,14.81,17.45,050118,,,A*7A
$GNRMC,050124.000,A,6115.1748,N,04639.0870,E,14.81,17.45,050118,,,A*7A
$GNRMC,050125.000,A,6115.1789,N,04639.0895,E,15.59,17.51,050118,,,A*7C
$GNRMC,050125.000,A,6115.1789,N,04639.0895,E,15.59,17.51,050118,,,A*7C
$GNRMC,050125.000,A,6115.1789,N,04639.0895,E,15.59,17.51,050118,,,A*7C
$GNRMC,050125.000,A,6115.1789,N,04639.0895,E,15.59,17.51,050118,,,A*7C
$GNRMC,050125.000,A,6115.1789,N,04639.0895,E,15.59,17.51,050118,,,A*7C
$GNRMC,050125.000,A,6115.1789,N,04639.0895,E,15.59,17.51,050118,,,A*7C
$GNRMC,050125.000,A,6115.1789,N,04639.0895,E,15.59,17.51,050118,,,A*7C
$GNRMC,050125.000,A,6115.1789,N,04639.0895,E,15.59,17.51,050118,,,A*7C
$GNRMC,050125.000,A,6115.1789,N,04639.0895,E,15.59,17.51,050118,,,A*7C
$GNRMC,050125.000,A,6115.1789,N,04639.0895,E,15.59,17.51,050118,,,A*7C
$GNRMC,050126.000,A,6115.1832,N,04639.0921,E,16.32,17.41,050118,,,A*71
$GNRMC,050126.000,A,6115.1832,N,04639.0921,E,16.32,17.41,050118,,,A*71
$GNRMC,050126.000,A,6115.1832,N,04639.0921,E,16.32,17.41,050118,,,A*71
$GNRMC,050126.000,A,6115.1832,N,04639.0921,E,16.32,17.41,050118,,,A*71
$GNRMC,050126.000,A,6115.1832,N,04639.0921,E,16.32,17.41,050118,,,A*71
$GNRMC,050126.000,A,6115.1832,N,04639.0921,E,16.32,17.41,050118,,,A*71
$GNRMC,050126.000,A,6115.1832,N,04639.0921,E,16.32,17.41,050118,,,A*71
$GNRMC,050126.000,A,6115.1832,N,04639.0921,E,16.32,17.41,050118,,,A*71
$GNRMC,050126.000,A,6115.1832,N,04639.0921,E,16.32,17.41,050118,,,A*71
$GNRMC,050126.000,A,6115.1832,N,04639.0921,E,16.32,17.41,050118,,,A*71
$GNRMC,050127.000,A,6115.1877,N,04639.0949,E,16.90,17.39,050118,,,A*78
$GNRMC,050127.000,A,6115.1877,N,04639.0949,E,16.90,17.39,050118,,,A*78
$GNRMC,050127.000,A,6115.1877,N,04639.0949,E,16.90,17.39,050118,,,A*78
$GNRMC,050127.000,A,6115.1877,N,04639.0949,E,16.90,17.39,050118,,,A*78
$GNRMC,050127.000,A,6115.1877,N,04639.0949,E,16.90,17.39,050118,,,A*78
$GNRMC,050127.000,A,6115.1877,N,04639.0949,E,16.90,17.39,050118,,,A*78
$GNRMC,050127.000,A,6115.1877,N,04639.0949,E,16.90,17.39,050118,,,A*78
$GNRMC,050127.000,A,6115.1877,N,04639.0949,E,16.90,17.39,050118,,,A*78
$GNRMC,050127.000,A,6115.1877,N,04639.0949,E,16.90,17.39,050118,,,A*78
$GNRMC,050127.000,A,6115.1877,N,04639.0949,E,16.90,17.39,050118,,,A*78
$GNRMC,050128.000,A,6115.1923,N,04639.0978,E,17.41,17.37,050118,,,A*76
$GNRMC,050128.000,A,6115.1923,N,04639.0978,E,17.41,17.37,050118,,,A*76
$GNRMC,050128.000,A,6115.1923,N,04639.0978,E,17.41,17.37,050118,,,A*76
$GNRMC,050128.000,A,6115.1923,N,04639.0978,E,17.41,17.37,050118,,,A*76
$GNRMC,050128.000,A,6115.1923,N,04639.0978,E,17.41,17.37,050118,,,A*76
$GNRMC,050128.000,A,6115.1923,N,04639.0978,E,17.41,17.37,050118,,,A*76
$GNRMC,050128.000,A,6115.1923,N,04639.0978,E,17.41,17.37,050118,,,A*76
$GNRMC,050128.000,A,6115.1923,N,04639.0978,E,17.41,17.37,050118,,,A*76
$GNRMC,050128.000,A,6115.1923,N,04639.0978,E,17.41,17.37,050118,,,A*76
$GNRMC,050129.000,A,6115.1971,N,04639.1008,E,17.83,17.29,050118,,,A*7E
$GNRMC,050129.000,A,6115.1971,N,04639.1008,E,17.83,17.29,050118,,,A*7E
$GNRMC,050129.000,A,6115.1971,N,04639.1008,E,17.83,17.29,050118,,,A*7E
$GNRMC,050129.000,A,6115.1971,N,04639.1008,E,17.83,17.29,050118,,,A*7E
$GNRMC,050129.000,A,6115.1971,N,04639.1008,E,17.83,17.29,050118,,,A*7E
$GNRMC,050129.000,A,6115.1971,N,04639.1008,E,17.83,17.29,050118,,,A*7E
$GNRMC,050129.000,A,6115.1971,N,04639.1008,E,17.83,17.29,050118,,,A*7E
$GNRMC,050129.000,A,6115.1971,N,04639.1008,E,17.83,17.29,050118,,,A*7E
$GNRMC,050129.000,A,6115.1971,N,04639.1008,E,17.83,17.29,050118,,,A*7E
$GNRMC,050129.000,A,6115.1971,N,04639.1008,E,17.83,17.29,050118,,,A*7E
$GNRMC,050130.000,A,6115.2020,N,04639.1038,E,18.29,17.30,050118,,,A*7C
$GNRMC,050130.000,A,6115.2020,N,04639.1038,E,18.29,17.30,050118,,,A*7C
$GNRMC,050130.000,A,6115.2020,N,04639.1038,E,18.29,17.30,050118,,,A*7C
$GNRMC,050130.000,A,6115.2020,N,04639.1038,E,18.29,17.30,050118,,,A*7C
$GNRMC,050130.000,A,6115.2020,N,04639.1038,E,18.29,17.30,050118,,,A*7C
$GNRMC,050130.000,A,6115.2020,N,04639.1038,E,18.29,17.30,050118,,,A*7C
$GNRMC,050130.000,A,6115.2020,N,04639.1038,E,18.29,17.30,050118,,,A*7C
$GNRMC,050130.000,A,6115.2020,N,04639.1038,E,18.29,17.30,050118,,,A*7C
$GNRMC,050130.000,A,6115.2020,N,04639.1038,E,18.29,17.30,050118,,,A*7C
$GNRMC,050130.000,A,6115.2020,N,04639.1038,E,18.29,17.30,050118,,,A*7C
$GNRMC,050131.000,A,6115.2070,N,04639.1070,E,18.60,17.62,050118,,,A*7E
$GNRMC,050131.000,A,6115.2070,N,04639.1070,E,18.60,17.62,050118,,,A*7E
$GNRMC,050131.000,A,6115.2070,N,04639.1070,E,18.60,17.62,050118,,,A*7E
$GNRMC,050131.000,A,6115.2070,N,04639.1070,E,18.60,17.62,050118,,,A*7E
$GNRMC,050131.000,A,6115.2070,N,04639.1070,E,18.60,17.62,050118,,,A*7E
$GNRMC,050131.000,A,6115.2070,N,04639.1070,E,18.60,17.62,050118,,,A*7E
$GNRMC,050131.000,A,6115.2070,N,04639.1070,E,18.60,17.62,050118,,,A*7E
$GNRMC,050131.000,A,6115.2070,N,04639.1070,E,18.60,17.62,050118,,,A*7E
$GNRMC,050131.000,A,6115.2070,N,04639.1070,E,18.60,17.62,050118,,,A*7E
$GNRMC,050131.000,A,6115.2070,N,04639.1070,E,18.60,17.62,050118,,,A*7E
$GNRMC,050131.000,A,6115.2070,N,04639.1070,E,18.60,17.62,050118,,,A*7E
$GNRMC,050132.000,A,6115.2120,N,04639.1102,E,18.77,17.93,050118,,,A*75
$GNRMC,050132.000,A,6115.2120,N,04639.1102,E,18.77,17.93,050118,,,A*75
$GNRMC,050132.000,A,6115.2120,N,04639.1102,E,18.77,17.93,050118,,,A*75
$GNRMC,050132.000,A,6115.2120,N,04639.1102,E,18.77,17.93,050118,,,A*75
$GNRMC,050132.000,A,6115.2120,N,04639.1102,E,18.77,17.93,050118,,,A*75
$GNRMC,050132.000,A,6115.2120,N,04639.1102,E,18.77,17.93,050118,,,A*75
$GNRMC,050132.000,A,6115.2120,N,04639.1102,E,18.77,17.93,050118,,,A*75
$GNRMC,050132.000,A,6115.2120,N,04639.1102,E,18.77,17.93,050118,,,A*75
